{"client_id":"59dd0eeb","altitude":221.5,"gps":{"latitude":49.226645255254375,"longitude":16.597740473242606},"aircraft_orientation":{"pitch":1.8,"roll":0.5,"yaw":-157.7,"compass":-157.6999969482422},"aircraft_velocity":{"velocity_x":0,"velocity_y":0,"velocity_z":0},"gimbal_orientation":{"pitch":0,"roll":0,"yaw":-157.89999389648438,"yaw_relative":0},"timestamp":"2023-09-06 16:15:40.003"}
{"client_id":"59dd0eeb","altitude":221.5,"gps":{"latitude":49.22664528000673,"longitude":16.597740453093714},"aircraft_orientation":{"pitch":1.8,"roll":0.5,"yaw":-157.7,"compass":-157.6999969482422},"aircraft_velocity":{"velocity_x":0,"velocity_y":0,"velocity_z":0},"gimbal_orientation":{"pitch":0,"roll":0,"yaw":-157.89999389648438,"yaw_relative":0},"timestamp":"2023-09-06 16:15:40.107"}
{"client_id":"59dd0eeb","altitude":221.5,"gps":{"latitude":49.22664532346664,"longitude":16.59774044118278},"aircraft_orientation":{"pitch":1.8,"roll":0.5,"yaw":-157.7,"compass":-157.6999969482422},"aircraft_velocity":{"velocity_x":0,"velocity_y":0,"velocity_z":0},"gimbal_orientation":{"pitch":0,"roll":0,"yaw":-157.89999389648438,"yaw_relative":0},"timestamp":"2023-09-06 16:15:40.219"}
{"client_id":"59dd0eeb","altitude":221.5,"gps":{"latitude":49.226645360777546,"longitude":16.597740429114435},"aircraft_orientation":{"pitch":1.9,"roll":0.5,"yaw":-157.7,"compass":-157.6999969482422},"aircraft_velocity":{"velocity_x":0,"velocity_y":0,"velocity_z":0},"gimbal_orientation":{"pitch":0,"roll":0,"yaw":-157.89999389648438,"yaw_relative":0},"timestamp":"2023-09-06 16:15:40.320"}
{"client_id":"59dd0eeb","altitude":221.5,"gps":{"latitude":49.22664541637914,"longitude":16.597740385668384},"aircraft_orientation":{"pitch":1.8,"roll":0.5,"yaw":-157.7,"compass":-157.6999969482422},"aircraft_velocity":{"velocity_x":0,"velocity_y":0,"velocity_z":0},"gimbal_orientation":{"pitch":0,"roll":0,"yaw":-157.89999389648438,"yaw_relative":0},"timestamp":"2023-09-06 16:15:40.422"}
{"client_id":"59dd0eeb","altitude":221.5,"gps":{"latitude":49.22664546317411,"longitude":16.597740350145475},"aircraft_orientation":{"pitch":1.8,"roll":0.5,"yaw":-157.7,"compass":-157.6999969482422},"aircraft_velocity":{"velocity_x":0,"velocity_y":0,"velocity_z":0},"gimbal_orientation":{"pitch":0,"roll":0,"yaw":-157.89999389648438,"yaw_relative":0},"timestamp":"2023-09-06 16:15:40.525"}
{"client_id":"59dd0eeb","altitude":221.5,"gps":{"latitude":49.22664548433085,"longitude":16.597740327320558},"aircraft_orientation":{"pitch":1.8,"roll":0.5,"yaw":-157.7,"compass":-157.6999969482422},"aircraft_velocity":{"velocity_x":0,"velocity_y":0,"velocity_z":0},"gimbal_orientation":{"pitch":0,"roll":0,"yaw":-157.89999389648438,"yaw_relative":0},"timestamp":"2023-09-06 16:15:40.632"}
{"client_id":"59dd0eeb","altitude":221.5,"gps":{"latitude":49.226645505696034,"longitude":16.59774030685684},"aircraft_orientation":{"pitch":1.8,"roll":0.5,"yaw":-157.7,"compass":-157.6999969482422},"aircraft_velocity":{"velocity_x":0,"velocity_y":0,"velocity_z":0},"gimbal_orientation":{"pitch":0,"roll":0,"yaw":-157.89999389648438,"yaw_relative":0},"timestamp":"2023-09-06 16:15:40.734"}
{"client_id":"59dd0eeb","altitude":221.5,"gps":{"latitude":49.226645543267495,"longitude":16.597740300875135},"aircraft_orientation":{"pitch":1.8,"roll":0.5,"yaw":-157.7,"compass":-157.6999969482422},"aircraft_velocity":{"velocity_x":0,"velocity_y":0,"velocity_z":0},"gimbal_orientation":{"pitch":0,"roll":0,"yaw":-157.89999389648438,"yaw_relative":0},"timestamp":"2023-09-06 16:15:40.838"}
{"client_id":"59dd0eeb","altitude":221.5,"gps":{"latitude":49.226645577608124,"longitude":16.597740292059996},"aircraft_orientation":{"pitch":1.9,"roll":0.5,"yaw":-157.7,"compass":-157.6999969482422},"aircraft_velocity":{"velocity_x":0,"velocity_y":0,"velocity_z":0},"gimbal_orientation":{"pitch":0,"roll":0,"yaw":-157.89999389648438,"yaw_relative":0},"timestamp":"2023-09-06 16:15:40.939"}
{"client_id":"59dd0eeb","altitude":221.5,"gps":{"latitude":49.22664558776961,"longitude":16.59774029657251},"aircraft_orientation":{"pitch":1.8,"roll":0.5,"yaw":-157.7,"compass":-157.6999969482422},"aircraft_velocity":{"velocity_x":0,"velocity_y":0,"velocity_z":0},"gimbal_orientation":{"pitch":0,"roll":0,"yaw":-157.89999389648438,"yaw_relative":0},"timestamp":"2023-09-06 16:15:41.048"}
{"client_id":"59dd0eeb","altitude":221.5,"gps":{"latitude":49.22664560110982,"longitude":16.59774029657251},"aircraft_orientation":{"pitch":1.9,"roll":0.5,"yaw":-157.7,"compass":-157.6999969482422},"aircraft_velocity":{"velocity_x":0,"velocity_y":0,"velocity_z":0},"gimbal_orientation":{"pitch":0,"roll":0,"yaw":-157.89999389648438,"yaw_relative":0},"timestamp":"2023-09-06 16:15:41.150"}
{"client_id":"59dd0eeb","altitude":221.5,"gps":{"latitude":49.22664563367871,"longitude":16.59774026692635},"aircraft_orientation":{"pitch":1.9,"roll":0.5,"yaw":-157.7,"compass":-157.6999969482422},"aircraft_velocity":{"velocity_x":0,"velocity_y":0,"velocity_z":0},"gimbal_orientation":{"pitch":0,"roll":0,"yaw":-157.89999389648438,"yaw_relative":0},"timestamp":"2023-09-06 16:15:41.252"}
{"client_id":"59dd0eeb","altitude":221.5,"gps":{"latitude":49.22664566348575,"longitude":16.597740240323517},"aircraft_orientation":{"pitch":1.9,"roll":0.5,"yaw":-157.7,"compass":-157.6999969482422},"aircraft_velocity":{"velocity_x":0,"velocity_y":0,"velocity_z":0},"gimbal_orientation":{"pitch":0,"roll":0,"yaw":-157.89999389648438,"yaw_relative":0},"timestamp":"2023-09-06 16:15:41.354"}
{"client_id":"59dd0eeb","altitude":221.5,"gps":{"latitude":49.226645711583465,"longitude":16.597740224792084},"aircraft_orientation":{"pitch":1.9,"roll":0.5,"yaw":-157.7,"compass":-157.6999969482422},"aircraft_velocity":{"velocity_x":0,"velocity_y":0,"velocity_z":0},"gimbal_orientation":{"pitch":0,"roll":0,"yaw":-157.89999389648438,"yaw_relative":0},"timestamp":"2023-09-06 16:15:41.456"}
{"client_id":"59dd0eeb","altitude":221.5,"gps":{"latitude":49.22664577223975,"longitude":16.59774016801838},"aircraft_orientation":{"pitch":1.8,"roll":0.5,"yaw":-157.7,"compass":-157.6999969482422},"aircraft_velocity":{"velocity_x":0,"velocity_y":0,"velocity_z":0},"gimbal_orientation":{"pitch":0,"roll":0,"yaw":-157.89999389648438,"yaw_relative":0},"timestamp":"2023-09-06 16:15:41.558"}
{"client_id":"59dd0eeb","altitude":221.5,"gps":{"latitude":49.22664579162475,"longitude":16.597740132442997},"aircraft_orientation":{"pitch":1.8,"roll":0.5,"yaw":-157.7,"compass":-157.6999969482422},"aircraft_velocity":{"velocity_x":0,"velocity_y":0,"velocity_z":0},"gimbal_orientation":{"pitch":0,"roll":0,"yaw":-157.89999389648438,"yaw_relative":0},"timestamp":"2023-09-06 16:15:41.668"}
{"client_id":"59dd0eeb","altitude":221.5,"gps":{"latitude":49.22664583023841,"longitude":16.59774011402565},"aircraft_orientation":{"pitch":1.9,"roll":0.5,"yaw":-157.7,"compass":-157.6999969482422},"aircraft_velocity":{"velocity_x":0,"velocity_y":0,"velocity_z":0},"gimbal_orientation":{"pitch":0,"roll":0,"yaw":-157.39999389648438,"yaw_relative":0},"timestamp":"2023-09-06 16:15:41.787"}
{"client_id":"59dd0eeb","altitude":221.5,"gps":{"latitude":49.22664586457904,"longitude":16.59774009555583},"aircraft_orientation":{"pitch":1.9,"roll":0.5,"yaw":-157.7,"compass":-157.6999969482422},"aircraft_velocity":{"velocity_x":0,"velocity_y":0,"velocity_z":0},"gimbal_orientation":{"pitch":0,"roll":0,"yaw":-154.5,"yaw_relative":0},"timestamp":"2023-09-06 16:15:41.889"}
{"client_id":"59dd0eeb","altitude":221.5,"gps":{"latitude":49.226645917106126,"longitude":16.597740092827337},"aircraft_orientation":{"pitch":1.9,"roll":0.5,"yaw":-157.7,"compass":-157.6999969482422},"aircraft_velocity":{"velocity_x":0,"velocity_y":0,"velocity_z":0},"gimbal_orientation":{"pitch":0,"roll":0,"yaw":-154.10000610351562,"yaw_relative":0},"timestamp":"2023-09-06 16:15:41.992"}
{"client_id":"59dd0eeb","altitude":221.5,"gps":{"latitude":49.22664596192091,"longitude":16.597740084904206},"aircraft_orientation":{"pitch":1.9,"roll":0.5,"yaw":-157.7,"compass":-157.6999969482422},"aircraft_velocity":{"velocity_x":0,"velocity_y":0,"velocity_z":0},"gimbal_orientation":{"pitch":0,"roll":0,"yaw":-154,"yaw_relative":0},"timestamp":"2023-09-06 16:15:42.096"}
{"client_id":"59dd0eeb","altitude":221.5,"gps":{"latitude":49.22664602038856,"longitude":16.5977400896266},"aircraft_orientation":{"pitch":1.9,"roll":0.5,"yaw":-157.7,"compass":-157.6999969482422},"aircraft_velocity":{"velocity_x":0,"velocity_y":0,"velocity_z":0},"gimbal_orientation":{"pitch":0,"roll":0,"yaw":-154,"yaw_relative":0},"timestamp":"2023-09-06 16:15:42.197"}
{"client_id":"59dd0eeb","altitude":221.5,"gps":{"latitude":49.22664607077913,"longitude":16.59774008899695},"aircraft_orientation":{"pitch":1.9,"roll":0.5,"yaw":-157.7,"compass":-157.6999969482422},"aircraft_velocity":{"velocity_x":0,"velocity_y":0,"velocity_z":0},"gimbal_orientation":{"pitch":0,"roll":0,"yaw":-154,"yaw_relative":0},"timestamp":"2023-09-06 16:15:42.300"}
{"client_id":"59dd0eeb","altitude":221.5,"gps":{"latitude":49.226646094124504,"longitude":16.597740099176338},"aircraft_orientation":{"pitch":1.9,"roll":0.5,"yaw":-157.7,"compass":-157.6999969482422},"aircraft_velocity":{"velocity_x":0,"velocity_y":0,"velocity_z":0},"gimbal_orientation":{"pitch":0,"roll":0,"yaw":-154,"yaw_relative":0},"timestamp":"2023-09-06 16:15:42.416"}
{"client_id":"59dd0eeb","altitude":221.5,"gps":{"latitude":49.226646117730425,"longitude":16.59774010284931},"aircraft_orientation":{"pitch":1.9,"roll":0.5,"yaw":-157.7,"compass":-157.6999969482422},"aircraft_velocity":{"velocity_x":0,"velocity_y":0,"velocity_z":0},"gimbal_orientation":{"pitch":0,"roll":0,"yaw":-154,"yaw_relative":0},"timestamp":"2023-09-06 16:15:42.532"}
{"client_id":"59dd0eeb","altitude":221.5,"gps":{"latitude":49.226646155354,"longitude":16.59774007435752},"aircraft_orientation":{"pitch":1.9,"roll":0.5,"yaw":-157.7,"compass":-157.6999969482422},"aircraft_velocity":{"velocity_x":0,"velocity_y":0,"velocity_z":0},"gimbal_orientation":{"pitch":0,"roll":0,"yaw":-154,"yaw_relative":0},"timestamp":"2023-09-06 16:15:42.633"}
{"client_id":"59dd0eeb","altitude":221.5,"gps":{"latitude":49.22664619125793,"longitude":16.597740049486234},"aircraft_orientation":{"pitch":1.9,"roll":0.5,"yaw":-157.7,"compass":-157.6999969482422},"aircraft_velocity":{"velocity_x":0,"velocity_y":0,"velocity_z":0},"gimbal_orientation":{"pitch":0,"roll":0,"yaw":-154,"yaw_relative":0},"timestamp":"2023-09-06 16:15:42.738"}
{"client_id":"59dd0eeb","altitude":221.5,"gps":{"latitude":49.22664624081474,"longitude":16.59774007246856},"aircraft_orientation":{"pitch":1.9,"roll":0.5,"yaw":-157.7,"compass":-157.6999969482422},"aircraft_velocity":{"velocity_x":0,"velocity_y":0,"velocity_z":0},"gimbal_orientation":{"pitch":0,"roll":0,"yaw":-154,"yaw_relative":0},"timestamp":"2023-09-06 16:15:42.846"}
{"client_id":"59dd0eeb","altitude":221.5,"gps":{"latitude":49.22664628651539,"longitude":16.5977400899939},"aircraft_orientation":{"pitch":1.9,"roll":0.5,"yaw":-157.8,"compass":-157.8000030517578},"aircraft_velocity":{"velocity_x":0,"velocity_y":0,"velocity_z":0},"gimbal_orientation":{"pitch":0,"roll":0,"yaw":-154.89999389648438,"yaw_relative":0},"timestamp":"2023-09-06 16:15:42.948"}
{"client_id":"59dd0eeb","altitude":221.5,"gps":{"latitude":49.22664632163767,"longitude":16.597740046442908},"aircraft_orientation":{"pitch":1.8,"roll":0.6,"yaw":-157.7,"compass":-157.6999969482422},"aircraft_velocity":{"velocity_x":0,"velocity_y":0,"velocity_z":0},"gimbal_orientation":{"pitch":0,"roll":0,"yaw":-156.3000030517578,"yaw_relative":0},"timestamp":"2023-09-06 16:15:43.079"}
{"client_id":"59dd0eeb","altitude":221.5,"gps":{"latitude":49.22664631606188,"longitude":16.59774003411221},"aircraft_orientation":{"pitch":1.8,"roll":0.5,"yaw":-157.8,"compass":-157.8000030517578},"aircraft_velocity":{"velocity_x":0,"velocity_y":0,"velocity_z":0},"gimbal_orientation":{"pitch":0,"roll":0,"yaw":-157,"yaw_relative":0},"timestamp":"2023-09-06 16:15:43.194"}
{"client_id":"59dd0eeb","altitude":221.5,"gps":{"latitude":49.22664631929271,"longitude":16.597740022043862},"aircraft_orientation":{"pitch":1.8,"roll":0.5,"yaw":-157.8,"compass":-157.8000030517578},"aircraft_velocity":{"velocity_x":0,"velocity_y":0,"velocity_z":0},"gimbal_orientation":{"pitch":0,"roll":0,"yaw":-157.10000610351562,"yaw_relative":0},"timestamp":"2023-09-06 16:15:43.296"}
{"client_id":"59dd0eeb","altitude":221.5,"gps":{"latitude":49.22664634279442,"longitude":16.59774002193892},"aircraft_orientation":{"pitch":1.8,"roll":0.6,"yaw":-157.8,"compass":-157.8000030517578},"aircraft_velocity":{"velocity_x":0,"velocity_y":0,"velocity_z":0},"gimbal_orientation":{"pitch":0,"roll":0,"yaw":-157.1999969482422,"yaw_relative":0},"timestamp":"2023-09-06 16:15:43.399"}
{"client_id":"59dd0eeb","altitude":221.5,"gps":{"latitude":49.22664636692144,"longitude":16.59774001942031},"aircraft_orientation":{"pitch":1.8,"roll":0.6,"yaw":-157.8,"compass":-157.8000030517578},"aircraft_velocity":{"velocity_x":0,"velocity_y":0,"velocity_z":0},"gimbal_orientation":{"pitch":0,"roll":0,"yaw":-157.3000030517578,"yaw_relative":0},"timestamp":"2023-09-06 16:15:43.508"}
{"client_id":"59dd0eeb","altitude":221.5,"gps":{"latitude":49.226646412934755,"longitude":16.59774002440506},"aircraft_orientation":{"pitch":1.9,"roll":0.6,"yaw":-157.8,"compass":-157.8000030517578},"aircraft_velocity":{"velocity_x":0,"velocity_y":0,"velocity_z":0},"gimbal_orientation":{"pitch":0,"roll":0,"yaw":-157.39999389648438,"yaw_relative":0},"timestamp":"2023-09-06 16:15:43.609"}
{"client_id":"59dd0eeb","altitude":221.5,"gps":{"latitude":49.22664645259062,"longitude":16.597740023093284},"aircraft_orientation":{"pitch":1.8,"roll":0.6,"yaw":-157.8,"compass":-157.8000030517578},"aircraft_velocity":{"velocity_x":0,"velocity_y":0,"velocity_z":0},"gimbal_orientation":{"pitch":0,"roll":0,"yaw":-157.39999389648438,"yaw_relative":0},"timestamp":"2023-09-06 16:15:43.712"}
{"client_id":"59dd0eeb","altitude":221.5,"gps":{"latitude":49.226646470777084,"longitude":16.597740026871204},"aircraft_orientation":{"pitch":1.9,"roll":0.5,"yaw":-157.8,"compass":-157.8000030517578},"aircraft_velocity":{"velocity_x":0,"velocity_y":0,"velocity_z":0},"gimbal_orientation":{"pitch":0,"roll":0,"yaw":-157.39999389648438,"yaw_relative":0},"timestamp":"2023-09-06 16:15:43.820"}
{"client_id":"59dd0eeb","altitude":221.5,"gps":{"latitude":49.22664649052685,"longitude":16.59774002576931},"aircraft_orientation":{"pitch":1.9,"roll":0.5,"yaw":-157.7,"compass":-157.6999969482422},"aircraft_velocity":{"velocity_x":0,"velocity_y":0,"velocity_z":0},"gimbal_orientation":{"pitch":0,"roll":0,"yaw":-157.39999389648438,"yaw_relative":0},"timestamp":"2023-09-06 16:15:43.937"}
{"client_id":"59dd0eeb","altitude":221.5,"gps":{"latitude":49.22664653054749,"longitude":16.59774002975711},"aircraft_orientation":{"pitch":1.9,"roll":0.5,"yaw":-157.8,"compass":-157.8000030517578},"aircraft_velocity":{"velocity_x":0,"velocity_y":0,"velocity_z":0},"gimbal_orientation":{"pitch":0,"roll":0,"yaw":-157.5,"yaw_relative":0},"timestamp":"2023-09-06 16:15:44.052"}
{"client_id":"59dd0eeb","altitude":221.5,"gps":{"latitude":49.22664662111504,"longitude":16.597740036315997},"aircraft_orientation":{"pitch":1.8,"roll":0.5,"yaw":-157.7,"compass":-157.6999969482422},"aircraft_velocity":{"velocity_x":0,"velocity_y":0,"velocity_z":0},"gimbal_orientation":{"pitch":0,"roll":0,"yaw":-157.5,"yaw_relative":0},"timestamp":"2023-09-06 16:15:44.167"}
{"client_id":"59dd0eeb","altitude":221.5,"gps":{"latitude":49.2266466668678,"longitude":16.597740039831557},"aircraft_orientation":{"pitch":1.8,"roll":0.5,"yaw":-157.7,"compass":-157.6999969482422},"aircraft_velocity":{"velocity_x":0,"velocity_y":0,"velocity_z":0},"gimbal_orientation":{"pitch":0,"roll":0,"yaw":-157.5,"yaw_relative":0},"timestamp":"2023-09-06 16:15:44.269"}
{"client_id":"59dd0eeb","altitude":221.5,"gps":{"latitude":49.22664668620069,"longitude":16.59774004743986},"aircraft_orientation":{"pitch":1.7,"roll":0.5,"yaw":-157.7,"compass":-157.6999969482422},"aircraft_velocity":{"velocity_x":0,"velocity_y":0,"velocity_z":0},"gimbal_orientation":{"pitch":0,"roll":0,"yaw":-157.5,"yaw_relative":0},"timestamp":"2023-09-06 16:15:44.384"}
{"client_id":"59dd0eeb","altitude":221.5,"gps":{"latitude":49.226646708399635,"longitude":16.597740052791913},"aircraft_orientation":{"pitch":-0.4,"roll":0.3,"yaw":-157.7,"compass":-157.6999969482422},"aircraft_velocity":{"velocity_x":0,"velocity_y":0,"velocity_z":0},"gimbal_orientation":{"pitch":0,"roll":0,"yaw":-157.5,"yaw_relative":0},"timestamp":"2023-09-06 16:15:44.487"}
{"client_id":"59dd0eeb","altitude":221.5,"gps":{"latitude":49.22664674102062,"longitude":16.597740053474034},"aircraft_orientation":{"pitch":-1.7,"roll":0,"yaw":-157.7,"compass":-157.6999969482422},"aircraft_velocity":{"velocity_x":0,"velocity_y":0,"velocity_z":-0.10000000149011612},"gimbal_orientation":{"pitch":0,"roll":0,"yaw":-157.5,"yaw_relative":0},"timestamp":"2023-09-06 16:15:44.597"}
{"client_id":"59dd0eeb","altitude":221.5,"gps":{"latitude":49.22664674008264,"longitude":16.5977400439243},"aircraft_orientation":{"pitch":-1,"roll":0,"yaw":-157.7,"compass":-157.6999969482422},"aircraft_velocity":{"velocity_x":0,"velocity_y":0,"velocity_z":-0.30000001192092896},"gimbal_orientation":{"pitch":0,"roll":0,"yaw":-157.5,"yaw_relative":0},"timestamp":"2023-09-06 16:15:44.699"}
{"client_id":"59dd0eeb","altitude":221.5,"gps":{"latitude":49.22664669360034,"longitude":16.597740024142706},"aircraft_orientation":{"pitch":0,"roll":-0.2,"yaw":-157.5,"compass":-157.5},"aircraft_velocity":{"velocity_x":0,"velocity_y":0,"velocity_z":-0.4000000059604645},"gimbal_orientation":{"pitch":0,"roll":0,"yaw":-157.5,"yaw_relative":0},"timestamp":"2023-09-06 16:15:44.801"}
{"client_id":"59dd0eeb","altitude":221.60000610351562,"gps":{"latitude":49.226646642376004,"longitude":16.597740001107905},"aircraft_orientation":{"pitch":0.9,"roll":-0.1,"yaw":-157.5,"compass":-157.5},"aircraft_velocity":{"velocity_x":0,"velocity_y":0,"velocity_z":-0.5},"gimbal_orientation":{"pitch":0,"roll":0,"yaw":-157.5,"yaw_relative":0},"timestamp":"2023-09-06 16:15:44.909"}
{"client_id":"59dd0eeb","altitude":221.60000610351562,"gps":{"latitude":49.22664651944802,"longitude":16.59773999496879},"aircraft_orientation":{"pitch":1.2,"roll":-0.4,"yaw":-157.5,"compass":-157.5},"aircraft_velocity":{"velocity_x":0,"velocity_y":0,"velocity_z":-0.699999988079071},"gimbal_orientation":{"pitch":0,"roll":0,"yaw":-157.5,"yaw_relative":0},"timestamp":"2023-09-06 16:15:45.010"}
{"client_id":"59dd0eeb","altitude":221.6999969482422,"gps":{"latitude":49.226646431381766,"longitude":16.597740007771733},"aircraft_orientation":{"pitch":1,"roll":-0.3,"yaw":-157.6,"compass":-157.60000610351562},"aircraft_velocity":{"velocity_x":0,"velocity_y":0,"velocity_z":-0.8999999761581421},"gimbal_orientation":{"pitch":0,"roll":0,"yaw":-157.5,"yaw_relative":0},"timestamp":"2023-09-06 16:15:45.111"}
{"client_id":"59dd0eeb","altitude":221.8000030517578,"gps":{"latitude":49.22664635493609,"longitude":16.597740111664454},"aircraft_orientation":{"pitch":0.6,"roll":0.3,"yaw":-157.6,"compass":-157.60000610351562},"aircraft_velocity":{"velocity_x":0,"velocity_y":0,"velocity_z":-1.100000023841858},"gimbal_orientation":{"pitch":0,"roll":0,"yaw":-157.5,"yaw_relative":0},"timestamp":"2023-09-06 16:15:45.226"}
{"client_id":"59dd0eeb","altitude":221.89999389648438,"gps":{"latitude":49.22664629584312,"longitude":16.597740216396712},"aircraft_orientation":{"pitch":0.4,"roll":0.7,"yaw":-157.5,"compass":-157.5},"aircraft_velocity":{"velocity_x":0,"velocity_y":0,"velocity_z":-1.2000000476837158},"gimbal_orientation":{"pitch":0,"roll":0,"yaw":-157.5,"yaw_relative":0},"timestamp":"2023-09-06 16:15:45.328"}
{"client_id":"59dd0eeb","altitude":222,"gps":{"latitude":49.22664616369163,"longitude":16.59774038871171},"aircraft_orientation":{"pitch":0.2,"roll":0.9,"yaw":-157.5,"compass":-157.5},"aircraft_velocity":{"velocity_x":0,"velocity_y":0,"velocity_z":-1.2999999523162842},"gimbal_orientation":{"pitch":0,"roll":0,"yaw":-157.5,"yaw_relative":0},"timestamp":"2023-09-06 16:15:45.438"}
{"client_id":"59dd0eeb","altitude":222.1999969482422,"gps":{"latitude":49.22664606535967,"longitude":16.59774052156846},"aircraft_orientation":{"pitch":0.1,"roll":1.1,"yaw":-157.5,"compass":-157.5},"aircraft_velocity":{"velocity_x":0,"velocity_y":0,"velocity_z":-1.399999976158142},"gimbal_orientation":{"pitch":0,"roll":0,"yaw":-157.5,"yaw_relative":0},"timestamp":"2023-09-06 16:15:45.553"}
{"client_id":"59dd0eeb","altitude":222.3000030517578,"gps":{"latitude":49.226646091206334,"longitude":16.597740489823465},"aircraft_orientation":{"pitch":0.1,"roll":1,"yaw":-157.6,"compass":-157.60000610351562},"aircraft_velocity":{"velocity_x":0,"velocity_y":0,"velocity_z":-1.399999976158142},"gimbal_orientation":{"pitch":0,"roll":0,"yaw":-157.5,"yaw_relative":0},"timestamp":"2023-09-06 16:15:45.655"}
{"client_id":"59dd0eeb","altitude":222.60000610351562,"gps":{"latitude":49.22664605670938,"longitude":16.597740317088697},"aircraft_orientation":{"pitch":0.4,"roll":0.1,"yaw":-157.6,"compass":-157.60000610351562},"aircraft_velocity":{"velocity_x":0,"velocity_y":0,"velocity_z":-1.5},"gimbal_orientation":{"pitch":0,"roll":0,"yaw":-157.5,"yaw_relative":0},"timestamp":"2023-09-06 16:15:45.769"}
{"client_id":"59dd0eeb","altitude":222.8000030517578,"gps":{"latitude":49.22664600459917,"longitude":16.59774022064687},"aircraft_orientation":{"pitch":0.8,"roll":0.2,"yaw":-157.5,"compass":-157.5},"aircraft_velocity":{"velocity_x":0,"velocity_y":0,"velocity_z":-1.399999976158142},"gimbal_orientation":{"pitch":0,"roll":0,"yaw":-157.5,"yaw_relative":0},"timestamp":"2023-09-06 16:15:45.887"}
{"client_id":"59dd0eeb","altitude":222.89999389648438,"gps":{"latitude":49.22664601371845,"longitude":16.59774005174249},"aircraft_orientation":{"pitch":1.2,"roll":0.3,"yaw":-157.6,"compass":-157.60000610351562},"aircraft_velocity":{"velocity_x":0,"velocity_y":0,"velocity_z":-1.2000000476837158},"gimbal_orientation":{"pitch":0,"roll":0,"yaw":-157.5,"yaw_relative":0},"timestamp":"2023-09-06 16:15:46.000"}
{"client_id":"59dd0eeb","altitude":223,"gps":{"latitude":49.22664601377056,"longitude":16.59773992056481},"aircraft_orientation":{"pitch":1.3,"roll":0.4,"yaw":-157.6,"compass":-157.60000610351562},"aircraft_velocity":{"velocity_x":0,"velocity_y":0,"velocity_z":-1},"gimbal_orientation":{"pitch":0,"roll":0,"yaw":-157.5,"yaw_relative":0},"timestamp":"2023-09-06 16:15:46.102"}
{"client_id":"59dd0eeb","altitude":223.10000610351562,"gps":{"latitude":49.22664600074301,"longitude":16.59773986017061},"aircraft_orientation":{"pitch":1.3,"roll":0.3,"yaw":-157.6,"compass":-157.60000610351562},"aircraft_velocity":{"velocity_x":0,"velocity_y":0,"velocity_z":-0.699999988079071},"gimbal_orientation":{"pitch":0,"roll":0,"yaw":-157.5,"yaw_relative":0},"timestamp":"2023-09-06 16:15:46.217"}
{"client_id":"59dd0eeb","altitude":223.1999969482422,"gps":{"latitude":49.22664598656903,"longitude":16.597739810532975},"aircraft_orientation":{"pitch":1.3,"roll":0.2,"yaw":-157.6,"compass":-157.60000610351562},"aircraft_velocity":{"velocity_x":0,"velocity_y":0,"velocity_z":-0.4000000059604645},"gimbal_orientation":{"pitch":0,"roll":0,"yaw":-157.5,"yaw_relative":0},"timestamp":"2023-09-06 16:15:46.320"}
{"client_id":"59dd0eeb","altitude":223.1999969482422,"gps":{"latitude":49.226646275051145,"longitude":16.59773929127925},"aircraft_orientation":{"pitch":1.3,"roll":0.3,"yaw":-157.6,"compass":-157.60000610351562},"aircraft_velocity":{"velocity_x":0,"velocity_y":0,"velocity_z":-0.20000000298023224},"gimbal_orientation":{"pitch":0,"roll":0,"yaw":-157.5,"yaw_relative":0},"timestamp":"2023-09-06 16:15:46.422"}
{"client_id":"59dd0eeb","altitude":223.3000030517578,"gps":{"latitude":49.226646505221936,"longitude":16.597738881532653},"aircraft_orientation":{"pitch":0.8,"roll":0.1,"yaw":-157.7,"compass":-157.6999969482422},"aircraft_velocity":{"velocity_x":0,"velocity_y":0,"velocity_z":-0.20000000298023224},"gimbal_orientation":{"pitch":0,"roll":0,"yaw":-157.5,"yaw_relative":0},"timestamp":"2023-09-06 16:15:46.525"}
{"client_id":"59dd0eeb","altitude":223.3000030517578,"gps":{"latitude":49.226646678905254,"longitude":16.59773861629139},"aircraft_orientation":{"pitch":0.4,"roll":-0.4,"yaw":-157.7,"compass":-157.6999969482422},"aircraft_velocity":{"velocity_x":0,"velocity_y":0,"velocity_z":-0.10000000149011612},"gimbal_orientation":{"pitch":0,"roll":0,"yaw":-157.5,"yaw_relative":0},"timestamp":"2023-09-06 16:15:46.627"}
{"client_id":"59dd0eeb","altitude":223.3000030517578,"gps":{"latitude":49.226646811577844,"longitude":16.597738417898267},"aircraft_orientation":{"pitch":0.2,"roll":-0.6,"yaw":-157.7,"compass":-157.6999969482422},"aircraft_velocity":{"velocity_x":0,"velocity_y":0,"velocity_z":-0.10000000149011612},"gimbal_orientation":{"pitch":0,"roll":0,"yaw":-157.5,"yaw_relative":0},"timestamp":"2023-09-06 16:15:46.728"}
{"client_id":"59dd0eeb","altitude":223.3000030517578,"gps":{"latitude":49.22664696259323,"longitude":16.597738196050578},"aircraft_orientation":{"pitch":0.1,"roll":-0.5,"yaw":-157.6,"compass":-157.60000610351562},"aircraft_velocity":{"velocity_x":0,"velocity_y":0,"velocity_z":-0.10000000149011612},"gimbal_orientation":{"pitch":0,"roll":0,"yaw":-157.5,"yaw_relative":0},"timestamp":"2023-09-06 16:15:46.842"}
{"client_id":"59dd0eeb","altitude":223.3000030517578,"gps":{"latitude":49.22664708150872,"longitude":16.597738018436},"aircraft_orientation":{"pitch":0.1,"roll":-0.3,"yaw":-157.6,"compass":-157.60000610351562},"aircraft_velocity":{"velocity_x":0,"velocity_y":0,"velocity_z":-0.10000000149011612},"gimbal_orientation":{"pitch":0,"roll":0,"yaw":-157.5,"yaw_relative":0},"timestamp":"2023-09-06 16:15:46.943"}
{"client_id":"59dd0eeb","altitude":223.39999389648438,"gps":{"latitude":49.22664716623992,"longitude":16.597737841398608},"aircraft_orientation":{"pitch":0,"roll":-0.2,"yaw":-157.5,"compass":-157.5},"aircraft_velocity":{"velocity_x":0,"velocity_y":0,"velocity_z":-0.20000000298023224},"gimbal_orientation":{"pitch":0,"roll":0,"yaw":-157.5,"yaw_relative":0},"timestamp":"2023-09-06 16:15:47.057"}
{"client_id":"59dd0eeb","altitude":223.39999389648438,"gps":{"latitude":49.22664710579208,"longitude":16.597737851945293},"aircraft_orientation":{"pitch":0,"roll":0,"yaw":-157.5,"compass":-157.5},"aircraft_velocity":{"velocity_x":0,"velocity_y":0,"velocity_z":-0.30000001192092896},"gimbal_orientation":{"pitch":0,"roll":0,"yaw":-157.5,"yaw_relative":0},"timestamp":"2023-09-06 16:15:47.174"}
{"client_id":"59dd0eeb","altitude":223.39999389648438,"gps":{"latitude":49.2266470660841,"longitude":16.597737839457178},"aircraft_orientation":{"pitch":0.3,"roll":0.2,"yaw":-157.5,"compass":-157.5},"aircraft_velocity":{"velocity_x":0,"velocity_y":0,"velocity_z":-0.4000000059604645},"gimbal_orientation":{"pitch":0,"roll":0,"yaw":-157.5,"yaw_relative":0},"timestamp":"2023-09-06 16:15:47.291"}
{"client_id":"59dd0eeb","altitude":223.5,"gps":{"latitude":49.2266469966733,"longitude":16.59773796743412},"aircraft_orientation":{"pitch":0.3,"roll":0.3,"yaw":-157.6,"compass":-157.60000610351562},"aircraft_velocity":{"velocity_x":0,"velocity_y":0,"velocity_z":-0.5},"gimbal_orientation":{"pitch":0,"roll":0,"yaw":-157.5,"yaw_relative":0},"timestamp":"2023-09-06 16:15:47.394"}
{"client_id":"59dd0eeb","altitude":223.60000610351562,"gps":{"latitude":49.22664695738221,"longitude":16.59773804089362},"aircraft_orientation":{"pitch":0.3,"roll":0.4,"yaw":-157.6,"compass":-157.60000610351562},"aircraft_velocity":{"velocity_x":0,"velocity_y":0,"velocity_z":-0.5},"gimbal_orientation":{"pitch":0,"roll":0,"yaw":-157.5,"yaw_relative":0},"timestamp":"2023-09-06 16:15:47.497"}
{"client_id":"59dd0eeb","altitude":223.60000610351562,"gps":{"latitude":49.226646874162206,"longitude":16.59773810212736},"aircraft_orientation":{"pitch":0.3,"roll":0.5,"yaw":-157.6,"compass":-157.60000610351562},"aircraft_velocity":{"velocity_x":0,"velocity_y":0,"velocity_z":-0.5},"gimbal_orientation":{"pitch":0,"roll":0,"yaw":-157.5,"yaw_relative":0},"timestamp":"2023-09-06 16:15:47.601"}
{"client_id":"59dd0eeb","altitude":223.6999969482422,"gps":{"latitude":49.22664681960282,"longitude":16.597738126631352},"aircraft_orientation":{"pitch":0.5,"roll":0.5,"yaw":-157.6,"compass":-157.60000610351562},"aircraft_velocity":{"velocity_x":0,"velocity_y":0,"velocity_z":-0.5},"gimbal_orientation":{"pitch":0,"roll":0,"yaw":-157.5,"yaw_relative":0},"timestamp":"2023-09-06 16:15:47.704"}
{"client_id":"59dd0eeb","altitude":223.6999969482422,"gps":{"latitude":49.22664673356886,"longitude":16.597738128887606},"aircraft_orientation":{"pitch":0.6,"roll":0.5,"yaw":-157.6,"compass":-157.60000610351562},"aircraft_velocity":{"velocity_x":0,"velocity_y":0,"velocity_z":-0.5},"gimbal_orientation":{"pitch":0,"roll":0,"yaw":-157.5,"yaw_relative":0},"timestamp":"2023-09-06 16:15:47.807"}
{"client_id":"59dd0eeb","altitude":223.8000030517578,"gps":{"latitude":49.22664667817571,"longitude":16.597738115350072},"aircraft_orientation":{"pitch":0.5,"roll":0.6,"yaw":-157.6,"compass":-157.60000610351562},"aircraft_velocity":{"velocity_x":0,"velocity_y":0,"velocity_z":-0.5},"gimbal_orientation":{"pitch":0,"roll":0,"yaw":-157.5,"yaw_relative":0},"timestamp":"2023-09-06 16:15:47.910"}
{"client_id":"59dd0eeb","altitude":223.8000030517578,"gps":{"latitude":49.22664663742553,"longitude":16.597738078882678},"aircraft_orientation":{"pitch":0.4,"roll":0.6,"yaw":-157.6,"compass":-157.60000610351562},"aircraft_velocity":{"velocity_x":0,"velocity_y":0,"velocity_z":-0.5},"gimbal_orientation":{"pitch":0,"roll":0,"yaw":-157.5,"yaw_relative":0},"timestamp":"2023-09-06 16:15:48.015"}
{"client_id":"59dd0eeb","altitude":223.89999389648438,"gps":{"latitude":49.226646610953544,"longitude":16.597738030609293},"aircraft_orientation":{"pitch":0.3,"roll":0.6,"yaw":-157.7,"compass":-157.6999969482422},"aircraft_velocity":{"velocity_x":0,"velocity_y":0,"velocity_z":-0.5},"gimbal_orientation":{"pitch":0,"roll":0,"yaw":-157.5,"yaw_relative":0},"timestamp":"2023-09-06 16:15:48.118"}
{"client_id":"59dd0eeb","altitude":223.89999389648438,"gps":{"latitude":49.22664655488296,"longitude":16.5977381533916},"aircraft_orientation":{"pitch":0.2,"roll":0.4,"yaw":-157.6,"compass":-157.60000610351562},"aircraft_velocity":{"velocity_x":0,"velocity_y":0,"velocity_z":-0.5},"gimbal_orientation":{"pitch":0,"roll":0,"yaw":-157.5,"yaw_relative":0},"timestamp":"2023-09-06 16:15:48.230"}
{"client_id":"59dd0eeb","altitude":224,"gps":{"latitude":49.2266465091302,"longitude":16.59773822821535},"aircraft_orientation":{"pitch":0.1,"roll":0.4,"yaw":-157.5,"compass":-157.5},"aircraft_velocity":{"velocity_x":0,"velocity_y":0,"velocity_z":-0.5},"gimbal_orientation":{"pitch":0,"roll":0,"yaw":-157.5,"yaw_relative":0},"timestamp":"2023-09-06 16:15:48.344"}
{"client_id":"59dd0eeb","altitude":224.10000610351562,"gps":{"latitude":49.22664622997581,"longitude":16.597738765204287},"aircraft_orientation":{"pitch":0.4,"roll":0.4,"yaw":-157.5,"compass":-157.5},"aircraft_velocity":{"velocity_x":0,"velocity_y":0,"velocity_z":-0.4000000059604645},"gimbal_orientation":{"pitch":0,"roll":0,"yaw":-157.5,"yaw_relative":0},"timestamp":"2023-09-06 16:15:48.461"}
{"client_id":"59dd0eeb","altitude":224.10000610351562,"gps":{"latitude":49.22664609454139,"longitude":16.59773888184748},"aircraft_orientation":{"pitch":0.6,"roll":0.6,"yaw":-157.5,"compass":-157.5},"aircraft_velocity":{"velocity_x":0,"velocity_y":0,"velocity_z":-0.30000001192092896},"gimbal_orientation":{"pitch":0,"roll":0,"yaw":-157.5,"yaw_relative":0},"timestamp":"2023-09-06 16:15:48.563"}
{"client_id":"59dd0eeb","altitude":224.1999969482422,"gps":{"latitude":49.22664598646482,"longitude":16.59773895068953},"aircraft_orientation":{"pitch":0.5,"roll":0.7,"yaw":-157.5,"compass":-157.5},"aircraft_velocity":{"velocity_x":0,"velocity_y":0,"velocity_z":-0.30000001192092896},"gimbal_orientation":{"pitch":0,"roll":0,"yaw":-157.5,"yaw_relative":0},"timestamp":"2023-09-06 16:15:48.676"}
{"client_id":"59dd0eeb","altitude":224.1999969482422,"gps":{"latitude":49.22664585123882,"longitude":16.597739062767737},"aircraft_orientation":{"pitch":0.5,"roll":0.4,"yaw":-157.6,"compass":-157.60000610351562},"aircraft_velocity":{"velocity_x":0,"velocity_y":0,"velocity_z":-0.30000001192092896},"gimbal_orientation":{"pitch":0,"roll":0,"yaw":-157.5,"yaw_relative":0},"timestamp":"2023-09-06 16:15:48.791"}
{"client_id":"59dd0eeb","altitude":224.1999969482422,"gps":{"latitude":49.226645740087754,"longitude":16.597739144097897},"aircraft_orientation":{"pitch":0.6,"roll":0.2,"yaw":-157.6,"compass":-157.60000610351562},"aircraft_velocity":{"velocity_x":0,"velocity_y":0,"velocity_z":-0.30000001192092896},"gimbal_orientation":{"pitch":0,"roll":0,"yaw":-157.5,"yaw_relative":0},"timestamp":"2023-09-06 16:15:48.897"}
{"client_id":"59dd0eeb","altitude":224.3000030517578,"gps":{"latitude":49.22664568933241,"longitude":16.597739119436493},"aircraft_orientation":{"pitch":0.5,"roll":0,"yaw":-157.6,"compass":-157.60000610351562},"aircraft_velocity":{"velocity_x":0,"velocity_y":0,"velocity_z":-0.30000001192092896},"gimbal_orientation":{"pitch":0,"roll":0,"yaw":-157.5,"yaw_relative":0},"timestamp":"2023-09-06 16:15:49.001"}
{"client_id":"59dd0eeb","altitude":224.3000030517578,"gps":{"latitude":49.22664564149524,"longitude":16.597739107263205},"aircraft_orientation":{"pitch":0.6,"roll":-0.1,"yaw":-157.6,"compass":-157.60000610351562},"aircraft_velocity":{"velocity_x":0,"velocity_y":0,"velocity_z":-0.30000001192092896},"gimbal_orientation":{"pitch":0,"roll":0,"yaw":-157.5,"yaw_relative":0},"timestamp":"2023-09-06 16:15:49.104"}
{"client_id":"59dd0eeb","altitude":224.3000030517578,"gps":{"latitude":49.22664560731094,"longitude":16.597739135072874},"aircraft_orientation":{"pitch":0.3,"roll":-0.2,"yaw":-157.6,"compass":-157.60000610351562},"aircraft_velocity":{"velocity_x":0,"velocity_y":0,"velocity_z":-0.30000001192092896},"gimbal_orientation":{"pitch":0,"roll":0,"yaw":-157.5,"yaw_relative":0},"timestamp":"2023-09-06 16:15:49.205"}
{"client_id":"59dd0eeb","altitude":224.39999389648438,"gps":{"latitude":49.22664556692553,"longitude":16.597739179988107},"aircraft_orientation":{"pitch":0.2,"roll":-0.1,"yaw":-157.5,"compass":-157.5},"aircraft_velocity":{"velocity_x":0,"velocity_y":0,"velocity_z":-0.30000001192092896},"gimbal_orientation":{"pitch":0,"roll":0,"yaw":-157.5,"yaw_relative":0},"timestamp":"2023-09-06 16:15:49.307"}
{"client_id":"59dd0eeb","altitude":224.39999389648438,"gps":{"latitude":49.22664549136573,"longitude":16.59773933278387},"aircraft_orientation":{"pitch":0.3,"roll":0,"yaw":-157.6,"compass":-157.60000610351562},"aircraft_velocity":{"velocity_x":0,"velocity_y":0,"velocity_z":-0.10000000149011612},"gimbal_orientation":{"pitch":0,"roll":0,"yaw":-157.5,"yaw_relative":0},"timestamp":"2023-09-06 16:15:49.421"}
{"client_id":"59dd0eeb","altitude":224.39999389648438,"gps":{"latitude":49.22664541914098,"longitude":16.597739470153137},"aircraft_orientation":{"pitch":0.1,"roll":0,"yaw":-157.5,"compass":-157.5},"aircraft_velocity":{"velocity_x":0,"velocity_y":0,"velocity_z":0},"gimbal_orientation":{"pitch":0,"roll":0,"yaw":-157.5,"yaw_relative":0},"timestamp":"2023-09-06 16:15:49.523"}
{"client_id":"59dd0eeb","altitude":224.39999389648438,"gps":{"latitude":49.22664539188734,"longitude":16.59773952781884},"aircraft_orientation":{"pitch":0,"roll":0.2,"yaw":-157.6,"compass":-157.60000610351562},"aircraft_velocity":{"velocity_x":0,"velocity_y":0,"velocity_z":0},"gimbal_orientation":{"pitch":0,"roll":0,"yaw":-157.39999389648438,"yaw_relative":0},"timestamp":"2023-09-06 16:15:49.625"}
{"client_id":"59dd0eeb","altitude":224.39999389648438,"gps":{"latitude":49.22664535921424,"longitude":16.59773958941988},"aircraft_orientation":{"pitch":0,"roll":0.2,"yaw":-157.5,"compass":-157.5},"aircraft_velocity":{"velocity_x":0,"velocity_y":0,"velocity_z":0},"gimbal_orientation":{"pitch":0,"roll":0,"yaw":-156.89999389648438,"yaw_relative":0},"timestamp":"2023-09-06 16:15:49.728"}
{"client_id":"59dd0eeb","altitude":224.39999389648438,"gps":{"latitude":49.226645367812424,"longitude":16.59773959692324},"aircraft_orientation":{"pitch":0,"roll":0.1,"yaw":-157.2,"compass":-157.1999969482422},"aircraft_velocity":{"velocity_x":0,"velocity_y":0,"velocity_z":0},"gimbal_orientation":{"pitch":0,"roll":0,"yaw":-156,"yaw_relative":0},"timestamp":"2023-09-06 16:15:49.832"}
{"client_id":"59dd0eeb","altitude":224.39999389648438,"gps":{"latitude":49.22664535937057,"longitude":16.597739628196},"aircraft_orientation":{"pitch":0,"roll":0.3,"yaw":-156.6,"compass":-156.60000610351562},"aircraft_velocity":{"velocity_x":0,"velocity_y":0,"velocity_z":0},"gimbal_orientation":{"pitch":0,"roll":0,"yaw":-155.10000610351562,"yaw_relative":0},"timestamp":"2023-09-06 16:15:49.934"}
{"client_id":"59dd0eeb","altitude":224.39999389648438,"gps":{"latitude":49.22664534576981,"longitude":16.59773968491723},"aircraft_orientation":{"pitch":0,"roll":0.4,"yaw":-155.7,"compass":-155.6999969482422},"aircraft_velocity":{"velocity_x":0,"velocity_y":0,"velocity_z":0},"gimbal_orientation":{"pitch":0,"roll":0,"yaw":-154.10000610351562,"yaw_relative":0},"timestamp":"2023-09-06 16:15:50.045"}
{"client_id":"59dd0eeb","altitude":224.39999389648438,"gps":{"latitude":49.22664533691107,"longitude":16.59773974657074},"aircraft_orientation":{"pitch":0,"roll":0.3,"yaw":-153.9,"compass":-153.89999389648438},"aircraft_velocity":{"velocity_x":0,"velocity_y":0,"velocity_z":0},"gimbal_orientation":{"pitch":0,"roll":0,"yaw":-152.1999969482422,"yaw_relative":0},"timestamp":"2023-09-06 16:15:50.162"}
{"client_id":"59dd0eeb","altitude":224.39999389648438,"gps":{"latitude":49.22664533982925,"longitude":16.597739759583565},"aircraft_orientation":{"pitch":0,"roll":0.4,"yaw":-153,"compass":-153},"aircraft_velocity":{"velocity_x":0,"velocity_y":0,"velocity_z":0},"gimbal_orientation":{"pitch":0,"roll":0,"yaw":-151.1999969482422,"yaw_relative":0},"timestamp":"2023-09-06 16:15:50.264"}
{"client_id":"59dd0eeb","altitude":224.39999389648438,"gps":{"latitude":49.22664529225263,"longitude":16.597739793742228},"aircraft_orientation":{"pitch":-0.1,"roll":0.5,"yaw":-152,"compass":-152},"aircraft_velocity":{"velocity_x":0,"velocity_y":0,"velocity_z":0},"gimbal_orientation":{"pitch":0,"roll":0,"yaw":-150.3000030517578,"yaw_relative":0},"timestamp":"2023-09-06 16:15:50.380"}
{"client_id":"59dd0eeb","altitude":224.39999389648438,"gps":{"latitude":49.22664524920959,"longitude":16.597739829370088},"aircraft_orientation":{"pitch":-0.2,"roll":0.5,"yaw":-151.2,"compass":-151.1999969482422},"aircraft_velocity":{"velocity_x":0,"velocity_y":0,"velocity_z":0},"gimbal_orientation":{"pitch":0,"roll":0,"yaw":-149.3000030517578,"yaw_relative":0},"timestamp":"2023-09-06 16:15:50.492"}
{"client_id":"59dd0eeb","altitude":224.39999389648438,"gps":{"latitude":49.22664523185689,"longitude":16.597739806702585},"aircraft_orientation":{"pitch":-0.1,"roll":0.6,"yaw":-150.2,"compass":-150.1999969482422},"aircraft_velocity":{"velocity_x":0,"velocity_y":0,"velocity_z":0},"gimbal_orientation":{"pitch":0,"roll":0,"yaw":-148.3000030517578,"yaw_relative":0},"timestamp":"2023-09-06 16:15:50.609"}
{"client_id":"59dd0eeb","altitude":224.39999389648438,"gps":{"latitude":49.22664521439997,"longitude":16.597739789964315},"aircraft_orientation":{"pitch":-0.1,"roll":0.5,"yaw":-149.2,"compass":-149.1999969482422},"aircraft_velocity":{"velocity_x":0,"velocity_y":0,"velocity_z":0},"gimbal_orientation":{"pitch":0,"roll":0,"yaw":-147.39999389648438,"yaw_relative":0},"timestamp":"2023-09-06 16:15:50.723"}
{"client_id":"59dd0eeb","altitude":224.39999389648438,"gps":{"latitude":49.22664521950677,"longitude":16.597739652437635},"aircraft_orientation":{"pitch":0,"roll":0.4,"yaw":-148.2,"compass":-148.1999969482422},"aircraft_velocity":{"velocity_x":0,"velocity_y":0,"velocity_z":0},"gimbal_orientation":{"pitch":0,"roll":0,"yaw":-146.5,"yaw_relative":0},"timestamp":"2023-09-06 16:15:50.838"}
{"client_id":"59dd0eeb","altitude":224.39999389648438,"gps":{"latitude":49.226645156922416,"longitude":16.59773951344177},"aircraft_orientation":{"pitch":0,"roll":0.5,"yaw":-146.4,"compass":-146.39999389648438},"aircraft_velocity":{"velocity_x":0,"velocity_y":0,"velocity_z":0},"gimbal_orientation":{"pitch":0,"roll":0,"yaw":-144.89999389648438,"yaw_relative":0},"timestamp":"2023-09-06 16:15:50.956"}
{"client_id":"59dd0eeb","altitude":224.39999389648438,"gps":{"latitude":49.22664510621918,"longitude":16.597739485002446},"aircraft_orientation":{"pitch":0,"roll":0.4,"yaw":-145.5,"compass":-145.5},"aircraft_velocity":{"velocity_x":0,"velocity_y":0,"velocity_z":0},"gimbal_orientation":{"pitch":0,"roll":0,"yaw":-144.10000610351562,"yaw_relative":0},"timestamp":"2023-09-06 16:15:51.072"}
{"client_id":"59dd0eeb","altitude":224.39999389648438,"gps":{"latitude":49.226645041654635,"longitude":16.597739539729776},"aircraft_orientation":{"pitch":0,"roll":0.4,"yaw":-144.8,"compass":-144.8000030517578},"aircraft_velocity":{"velocity_x":0,"velocity_y":0,"velocity_z":0},"gimbal_orientation":{"pitch":0,"roll":0,"yaw":-143.5,"yaw_relative":0},"timestamp":"2023-09-06 16:15:51.188"}
{"client_id":"59dd0eeb","altitude":224.39999389648438,"gps":{"latitude":49.2266449894402,"longitude":16.59773957483292},"aircraft_orientation":{"pitch":0,"roll":0.4,"yaw":-144.1,"compass":-144.10000610351562},"aircraft_velocity":{"velocity_x":0,"velocity_y":0,"velocity_z":0},"gimbal_orientation":{"pitch":0,"roll":0,"yaw":-143.1999969482422,"yaw_relative":0},"timestamp":"2023-09-06 16:15:51.292"}
{"client_id":"59dd0eeb","altitude":224.39999389648438,"gps":{"latitude":49.22664488490713,"longitude":16.597739689639624},"aircraft_orientation":{"pitch":0,"roll":0.3,"yaw":-143.6,"compass":-143.60000610351562},"aircraft_velocity":{"velocity_x":0,"velocity_y":0,"velocity_z":0},"gimbal_orientation":{"pitch":0,"roll":0,"yaw":-143,"yaw_relative":0},"timestamp":"2023-09-06 16:15:51.402"}
{"client_id":"59dd0eeb","altitude":224.39999389648438,"gps":{"latitude":49.22664480220823,"longitude":16.597739768556117},"aircraft_orientation":{"pitch":0,"roll":0.3,"yaw":-143.3,"compass":-143.3000030517578},"aircraft_velocity":{"velocity_x":0,"velocity_y":0,"velocity_z":0},"gimbal_orientation":{"pitch":0,"roll":0,"yaw":-142.8000030517578,"yaw_relative":0},"timestamp":"2023-09-06 16:15:51.505"}
{"client_id":"59dd0eeb","altitude":224.39999389648438,"gps":{"latitude":49.22664472003043,"longitude":16.59773987260625},"aircraft_orientation":{"pitch":0.1,"roll":0.2,"yaw":-143,"compass":-143},"aircraft_velocity":{"velocity_x":0,"velocity_y":0,"velocity_z":0},"gimbal_orientation":{"pitch":0,"roll":0,"yaw":-142.8000030517578,"yaw_relative":0},"timestamp":"2023-09-06 16:15:51.618"}
{"client_id":"59dd0eeb","altitude":224.39999389648438,"gps":{"latitude":49.22664464962954,"longitude":16.59773995524819},"aircraft_orientation":{"pitch":0,"roll":0.1,"yaw":-142.9,"compass":-142.89999389648438},"aircraft_velocity":{"velocity_x":0,"velocity_y":0,"velocity_z":0},"gimbal_orientation":{"pitch":0,"roll":0,"yaw":-142.8000030517578,"yaw_relative":0},"timestamp":"2023-09-06 16:15:51.721"}
{"client_id":"59dd0eeb","altitude":224.39999389648438,"gps":{"latitude":49.22664461716488,"longitude":16.597740057619248},"aircraft_orientation":{"pitch":0,"roll":0,"yaw":-142.8,"compass":-142.8000030517578},"aircraft_velocity":{"velocity_x":0,"velocity_y":0,"velocity_z":0},"gimbal_orientation":{"pitch":0,"roll":0,"yaw":-142.8000030517578,"yaw_relative":0},"timestamp":"2023-09-06 16:15:51.829"}
{"client_id":"59dd0eeb","altitude":224.39999389648438,"gps":{"latitude":49.226644579853975,"longitude":16.597740142097674},"aircraft_orientation":{"pitch":-0.1,"roll":0.1,"yaw":-142.8,"compass":-142.8000030517578},"aircraft_velocity":{"velocity_x":0,"velocity_y":0,"velocity_z":0},"gimbal_orientation":{"pitch":0,"roll":0,"yaw":-142.8000030517578,"yaw_relative":0},"timestamp":"2023-09-06 16:15:51.931"}
{"client_id":"59dd0eeb","altitude":224.39999389648438,"gps":{"latitude":49.22664448136568,"longitude":16.597740305335176},"aircraft_orientation":{"pitch":-0.2,"roll":0.3,"yaw":-142.9,"compass":-142.89999389648438},"aircraft_velocity":{"velocity_x":0,"velocity_y":0,"velocity_z":0},"gimbal_orientation":{"pitch":0,"roll":0,"yaw":-142.8000030517578,"yaw_relative":0},"timestamp":"2023-09-06 16:15:52.050"}
{"client_id":"59dd0eeb","altitude":224.39999389648438,"gps":{"latitude":49.22664448136568,"longitude":16.597740305335176},"aircraft_orientation":{"pitch":-0.2,"roll":0.3,"yaw":-142.9,"compass":-142.89999389648438},"aircraft_velocity":{"velocity_x":0,"velocity_y":0,"velocity_z":0},"gimbal_orientation":{"pitch":0,"roll":0,"yaw":-142.8000030517578,"yaw_relative":0},"timestamp":"2023-09-06 16:15:52.153"}
{"client_id":"59dd0eeb","altitude":224.39999389648438,"gps":{"latitude":49.22664442649363,"longitude":16.597740362948414},"aircraft_orientation":{"pitch":-0.1,"roll":0.4,"yaw":-142.8,"compass":-142.8000030517578},"aircraft_velocity":{"velocity_x":0,"velocity_y":0,"velocity_z":0},"gimbal_orientation":{"pitch":0,"roll":0,"yaw":-142.8000030517578,"yaw_relative":0},"timestamp":"2023-09-06 16:15:52.259"}
{"client_id":"59dd0eeb","altitude":224.39999389648438,"gps":{"latitude":49.226644389234835,"longitude":16.597740391912446},"aircraft_orientation":{"pitch":0,"roll":0.5,"yaw":-142.9,"compass":-142.89999389648438},"aircraft_velocity":{"velocity_x":0,"velocity_y":0,"velocity_z":0},"gimbal_orientation":{"pitch":0,"roll":0,"yaw":-142.8000030517578,"yaw_relative":0},"timestamp":"2023-09-06 16:15:52.375"}
{"client_id":"59dd0eeb","altitude":224.39999389648438,"gps":{"latitude":49.22664434494116,"longitude":16.59774042239814},"aircraft_orientation":{"pitch":0,"roll":0.4,"yaw":-142.9,"compass":-142.89999389648438},"aircraft_velocity":{"velocity_x":0,"velocity_y":0,"velocity_z":0},"gimbal_orientation":{"pitch":0,"roll":0,"yaw":-142.8000030517578,"yaw_relative":0},"timestamp":"2023-09-06 16:15:52.492"}
{"client_id":"59dd0eeb","altitude":224.39999389648438,"gps":{"latitude":49.2266443043473,"longitude":16.597740461279198},"aircraft_orientation":{"pitch":0,"roll":0.4,"yaw":-142.9,"compass":-142.89999389648438},"aircraft_velocity":{"velocity_x":0,"velocity_y":0,"velocity_z":0},"gimbal_orientation":{"pitch":0,"roll":0,"yaw":-142.8000030517578,"yaw_relative":0},"timestamp":"2023-09-06 16:15:52.594"}
{"client_id":"59dd0eeb","altitude":224.39999389648438,"gps":{"latitude":49.226644262346476,"longitude":16.59774049890096},"aircraft_orientation":{"pitch":0,"roll":0.5,"yaw":-143,"compass":-143},"aircraft_velocity":{"velocity_x":0,"velocity_y":0,"velocity_z":0},"gimbal_orientation":{"pitch":-0.10000000149011612,"roll":0,"yaw":-142.8000030517578,"yaw_relative":0},"timestamp":"2023-09-06 16:15:52.696"}
{"client_id":"59dd0eeb","altitude":224.39999389648438,"gps":{"latitude":49.2266442251919,"longitude":16.597740505512313},"aircraft_orientation":{"pitch":0,"roll":0.6,"yaw":-143,"compass":-143},"aircraft_velocity":{"velocity_x":0,"velocity_y":0,"velocity_z":0},"gimbal_orientation":{"pitch":-0.20000000298023224,"roll":0,"yaw":-142.8000030517578,"yaw_relative":0},"timestamp":"2023-09-06 16:15:52.799"}
{"client_id":"59dd0eeb","altitude":224.39999389648438,"gps":{"latitude":49.22664418574447,"longitude":16.597740513907688},"aircraft_orientation":{"pitch":0,"roll":0.5,"yaw":-142.9,"compass":-142.89999389648438},"aircraft_velocity":{"velocity_x":0,"velocity_y":0,"velocity_z":0},"gimbal_orientation":{"pitch":-0.30000001192092896,"roll":0,"yaw":-142.8000030517578,"yaw_relative":0},"timestamp":"2023-09-06 16:15:52.906"}
{"client_id":"59dd0eeb","altitude":224.39999389648438,"gps":{"latitude":49.22664418574447,"longitude":16.597740531957733},"aircraft_orientation":{"pitch":0,"roll":0.5,"yaw":-142.9,"compass":-142.89999389648438},"aircraft_velocity":{"velocity_x":0,"velocity_y":0,"velocity_z":0},"gimbal_orientation":{"pitch":-0.4000000059604645,"roll":0,"yaw":-142.8000030517578,"yaw_relative":0},"timestamp":"2023-09-06 16:15:53.009"}
{"client_id":"59dd0eeb","altitude":224.39999389648438,"gps":{"latitude":49.22664417735473,"longitude":16.597740546544692},"aircraft_orientation":{"pitch":0,"roll":0.4,"yaw":-142.9,"compass":-142.89999389648438},"aircraft_velocity":{"velocity_x":0,"velocity_y":0,"velocity_z":0},"gimbal_orientation":{"pitch":-0.5,"roll":0,"yaw":-142.8000030517578,"yaw_relative":0},"timestamp":"2023-09-06 16:15:53.110"}
{"client_id":"59dd0eeb","altitude":224.39999389648438,"gps":{"latitude":49.22664416041891,"longitude":16.597740539933337},"aircraft_orientation":{"pitch":-0.1,"roll":0.4,"yaw":-142.9,"compass":-142.89999389648438},"aircraft_velocity":{"velocity_x":0,"velocity_y":0,"velocity_z":0},"gimbal_orientation":{"pitch":-0.6000000238418579,"roll":0,"yaw":-142.8000030517578,"yaw_relative":0},"timestamp":"2023-09-06 16:15:53.218"}
{"client_id":"59dd0eeb","altitude":224.39999389648438,"gps":{"latitude":49.22664413592711,"longitude":16.5977405331121},"aircraft_orientation":{"pitch":-0.2,"roll":0.3,"yaw":-142.8,"compass":-142.8000030517578},"aircraft_velocity":{"velocity_x":0,"velocity_y":0,"velocity_z":0},"gimbal_orientation":{"pitch":-0.699999988079071,"roll":0,"yaw":-142.8000030517578,"yaw_relative":0},"timestamp":"2023-09-06 16:15:53.332"}
{"client_id":"59dd0eeb","altitude":224.39999389648438,"gps":{"latitude":49.22664404786086,"longitude":16.59774056134153},"aircraft_orientation":{"pitch":-0.1,"roll":0.3,"yaw":-142.8,"compass":-142.8000030517578},"aircraft_velocity":{"velocity_x":0,"velocity_y":0,"velocity_z":0},"gimbal_orientation":{"pitch":-0.800000011920929,"roll":0,"yaw":-142.8000030517578,"yaw_relative":0},"timestamp":"2023-09-06 16:15:53.448"}
{"client_id":"59dd0eeb","altitude":224.39999389648438,"gps":{"latitude":49.22664398642292,"longitude":16.59774056365026},"aircraft_orientation":{"pitch":0,"roll":0.2,"yaw":-142.8,"compass":-142.8000030517578},"aircraft_velocity":{"velocity_x":0,"velocity_y":0,"velocity_z":0},"gimbal_orientation":{"pitch":-0.8999999761581421,"roll":0,"yaw":-142.8000030517578,"yaw_relative":0},"timestamp":"2023-09-06 16:15:53.550"}
{"client_id":"59dd0eeb","altitude":224.39999389648438,"gps":{"latitude":49.2266439275905,"longitude":16.597740562810724},"aircraft_orientation":{"pitch":0,"roll":0.2,"yaw":-142.9,"compass":-142.89999389648438},"aircraft_velocity":{"velocity_x":0,"velocity_y":0,"velocity_z":0},"gimbal_orientation":{"pitch":-1.100000023841858,"roll":0,"yaw":-142.8000030517578,"yaw_relative":0},"timestamp":"2023-09-06 16:15:53.666"}
{"client_id":"59dd0eeb","altitude":224.39999389648438,"gps":{"latitude":49.22664386339072,"longitude":16.597740601114605},"aircraft_orientation":{"pitch":0.1,"roll":0.3,"yaw":-142.9,"compass":-142.89999389648438},"aircraft_velocity":{"velocity_x":0,"velocity_y":0,"velocity_z":0},"gimbal_orientation":{"pitch":-1.2000000476837158,"roll":0,"yaw":-142.8000030517578,"yaw_relative":0},"timestamp":"2023-09-06 16:15:53.780"}
{"client_id":"59dd0eeb","altitude":224.39999389648438,"gps":{"latitude":49.226643803724535,"longitude":16.5977406292391},"aircraft_orientation":{"pitch":0,"roll":0.3,"yaw":-142.9,"compass":-142.89999389648438},"aircraft_velocity":{"velocity_x":0,"velocity_y":0,"velocity_z":0},"gimbal_orientation":{"pitch":-1.2999999523162842,"roll":0,"yaw":-142.8000030517578,"yaw_relative":0},"timestamp":"2023-09-06 16:15:53.883"}
{"client_id":"59dd0eeb","altitude":224.39999389648438,"gps":{"latitude":49.22664370638267,"longitude":16.59774069351616},"aircraft_orientation":{"pitch":0,"roll":0.5,"yaw":-142.9,"compass":-142.89999389648438},"aircraft_velocity":{"velocity_x":0,"velocity_y":0,"velocity_z":0},"gimbal_orientation":{"pitch":-1.399999976158142,"roll":0,"yaw":-142.8000030517578,"yaw_relative":0},"timestamp":"2023-09-06 16:15:53.993"}
{"client_id":"59dd0eeb","altitude":224.39999389648438,"gps":{"latitude":49.22664362071349,"longitude":16.597740738169044},"aircraft_orientation":{"pitch":0,"roll":0.6,"yaw":-142.9,"compass":-142.89999389648438},"aircraft_velocity":{"velocity_x":0,"velocity_y":0,"velocity_z":0},"gimbal_orientation":{"pitch":-1.5,"roll":0,"yaw":-142.8000030517578,"yaw_relative":0},"timestamp":"2023-09-06 16:15:54.094"}
{"client_id":"59dd0eeb","altitude":224.39999389648438,"gps":{"latitude":49.226643545518456,"longitude":16.597740801659043},"aircraft_orientation":{"pitch":0,"roll":0.5,"yaw":-143,"compass":-143},"aircraft_velocity":{"velocity_x":0,"velocity_y":0,"velocity_z":0},"gimbal_orientation":{"pitch":-1.600000023841858,"roll":0,"yaw":-142.8000030517578,"yaw_relative":0},"timestamp":"2023-09-06 16:15:54.196"}
{"client_id":"59dd0eeb","altitude":224.39999389648438,"gps":{"latitude":49.226643478087844,"longitude":16.597740840067868},"aircraft_orientation":{"pitch":0,"roll":0.3,"yaw":-143.1,"compass":-143.10000610351562},"aircraft_velocity":{"velocity_x":0,"velocity_y":0,"velocity_z":0},"gimbal_orientation":{"pitch":-1.7000000476837158,"roll":0,"yaw":-142.8000030517578,"yaw_relative":0},"timestamp":"2023-09-06 16:15:54.297"}
{"client_id":"59dd0eeb","altitude":224.39999389648438,"gps":{"latitude":49.22664342040185,"longitude":16.59774089600203},"aircraft_orientation":{"pitch":0,"roll":0.3,"yaw":-143.1,"compass":-143.10000610351562},"aircraft_velocity":{"velocity_x":0,"velocity_y":0,"velocity_z":0},"gimbal_orientation":{"pitch":-1.7999999523162842,"roll":0,"yaw":-142.8000030517578,"yaw_relative":0},"timestamp":"2023-09-06 16:15:54.399"}
{"client_id":"59dd0eeb","altitude":224.39999389648438,"gps":{"latitude":49.22664336344539,"longitude":16.59774093430591},"aircraft_orientation":{"pitch":0.1,"roll":0.2,"yaw":-143,"compass":-143},"aircraft_velocity":{"velocity_x":0,"velocity_y":0,"velocity_z":0},"gimbal_orientation":{"pitch":-2.200000047683716,"roll":0,"yaw":-142.8000030517578,"yaw_relative":0},"timestamp":"2023-09-06 16:15:54.501"}
{"client_id":"59dd0eeb","altitude":224.39999389648438,"gps":{"latitude":49.22664327324262,"longitude":16.597741002098534},"aircraft_orientation":{"pitch":0.3,"roll":0,"yaw":-143.1,"compass":-143.10000610351562},"aircraft_velocity":{"velocity_x":0,"velocity_y":0,"velocity_z":0},"gimbal_orientation":{"pitch":-2.700000047683716,"roll":0,"yaw":-142.8000030517578,"yaw_relative":0},"timestamp":"2023-09-06 16:15:54.605"}
{"client_id":"59dd0eeb","altitude":224.39999389648438,"gps":{"latitude":49.22664319226335,"longitude":16.597741055986326},"aircraft_orientation":{"pitch":0.4,"roll":0.2,"yaw":-143.1,"compass":-143.10000610351562},"aircraft_velocity":{"velocity_x":0,"velocity_y":0,"velocity_z":0},"gimbal_orientation":{"pitch":-3.700000047683716,"roll":0,"yaw":-142.8000030517578,"yaw_relative":0},"timestamp":"2023-09-06 16:15:54.707"}
{"client_id":"59dd0eeb","altitude":224.39999389648438,"gps":{"latitude":49.22664312592706,"longitude":16.597741101006502},"aircraft_orientation":{"pitch":0.3,"roll":0.3,"yaw":-143,"compass":-143},"aircraft_velocity":{"velocity_x":0,"velocity_y":0,"velocity_z":0},"gimbal_orientation":{"pitch":-4.800000190734863,"roll":0,"yaw":-142.8000030517578,"yaw_relative":0},"timestamp":"2023-09-06 16:15:54.810"}
{"client_id":"59dd0eeb","altitude":224.39999389648438,"gps":{"latitude":49.22664306985648,"longitude":16.59774113773625},"aircraft_orientation":{"pitch":0.3,"roll":0.3,"yaw":-142.9,"compass":-142.89999389648438},"aircraft_velocity":{"velocity_x":0,"velocity_y":0,"velocity_z":0},"gimbal_orientation":{"pitch":-5.800000190734863,"roll":0,"yaw":-142.8000030517578,"yaw_relative":0},"timestamp":"2023-09-06 16:15:54.923"}
{"client_id":"59dd0eeb","altitude":224.39999389648438,"gps":{"latitude":49.22664302978373,"longitude":16.59774119251605},"aircraft_orientation":{"pitch":0.2,"roll":0.2,"yaw":-142.9,"compass":-142.89999389648438},"aircraft_velocity":{"velocity_x":0,"velocity_y":0,"velocity_z":0},"gimbal_orientation":{"pitch":-6.900000095367432,"roll":0,"yaw":-142.8000030517578,"yaw_relative":0},"timestamp":"2023-09-06 16:15:55.035"}
{"client_id":"59dd0eeb","altitude":224.39999389648438,"gps":{"latitude":49.226642992055936,"longitude":16.59774123548986},"aircraft_orientation":{"pitch":0,"roll":0.1,"yaw":-142.8,"compass":-142.8000030517578},"aircraft_velocity":{"velocity_x":0,"velocity_y":0,"velocity_z":0},"gimbal_orientation":{"pitch":-8,"roll":0,"yaw":-142.8000030517578,"yaw_relative":0},"timestamp":"2023-09-06 16:15:55.137"}
{"client_id":"59dd0eeb","altitude":224.39999389648438,"gps":{"latitude":49.226642916913015,"longitude":16.59774126833675},"aircraft_orientation":{"pitch":0,"roll":-0.2,"yaw":-142.8,"compass":-142.8000030517578},"aircraft_velocity":{"velocity_x":0,"velocity_y":0,"velocity_z":0},"gimbal_orientation":{"pitch":-10.100000381469727,"roll":0,"yaw":-142.8000030517578,"yaw_relative":0},"timestamp":"2023-09-06 16:15:55.249"}
{"client_id":"59dd0eeb","altitude":224.39999389648438,"gps":{"latitude":49.226642916913015,"longitude":16.59774126833675},"aircraft_orientation":{"pitch":0,"roll":-0.2,"yaw":-142.8,"compass":-142.8000030517578},"aircraft_velocity":{"velocity_x":0,"velocity_y":0,"velocity_z":0},"gimbal_orientation":{"pitch":-11.199999809265137,"roll":0,"yaw":-142.8000030517578,"yaw_relative":0},"timestamp":"2023-09-06 16:15:55.351"}
{"client_id":"59dd0eeb","altitude":224.39999389648438,"gps":{"latitude":49.226642802062116,"longitude":16.597741213609424},"aircraft_orientation":{"pitch":0.3,"roll":0,"yaw":-142.7,"compass":-142.6999969482422},"aircraft_velocity":{"velocity_x":0,"velocity_y":0,"velocity_z":0},"gimbal_orientation":{"pitch":-12.199999809265137,"roll":0,"yaw":-142.8000030517578,"yaw_relative":0},"timestamp":"2023-09-06 16:15:55.463"}
{"client_id":"59dd0eeb","altitude":224.39999389648438,"gps":{"latitude":49.2266427335372,"longitude":16.59774123297125},"aircraft_orientation":{"pitch":0.3,"roll":0,"yaw":-142.8,"compass":-142.8000030517578},"aircraft_velocity":{"velocity_x":0,"velocity_y":0,"velocity_z":0},"gimbal_orientation":{"pitch":-13.100000381469727,"roll":0,"yaw":-142.8000030517578,"yaw_relative":0},"timestamp":"2023-09-06 16:15:55.580"}
{"client_id":"59dd0eeb","altitude":224.39999389648438,"gps":{"latitude":49.2266426631363,"longitude":16.59774126151551},"aircraft_orientation":{"pitch":0.4,"roll":0,"yaw":-142.8,"compass":-142.8000030517578},"aircraft_velocity":{"velocity_x":0,"velocity_y":0,"velocity_z":0},"gimbal_orientation":{"pitch":-13.300000190734863,"roll":0,"yaw":-142.8000030517578,"yaw_relative":0},"timestamp":"2023-09-06 16:15:55.694"}
{"client_id":"59dd0eeb","altitude":224.39999389648438,"gps":{"latitude":49.226642595862025,"longitude":16.597741319391105},"aircraft_orientation":{"pitch":0.4,"roll":0.1,"yaw":-142.8,"compass":-142.8000030517578},"aircraft_velocity":{"velocity_x":0,"velocity_y":0,"velocity_z":0},"gimbal_orientation":{"pitch":-13.300000190734863,"roll":0,"yaw":-142.8000030517578,"yaw_relative":0},"timestamp":"2023-09-06 16:15:55.796"}
{"client_id":"59dd0eeb","altitude":224.39999389648438,"gps":{"latitude":49.22664252712866,"longitude":16.597741374853026},"aircraft_orientation":{"pitch":0.4,"roll":0.3,"yaw":-142.8,"compass":-142.8000030517578},"aircraft_velocity":{"velocity_x":0,"velocity_y":0,"velocity_z":0},"gimbal_orientation":{"pitch":-13.300000190734863,"roll":0,"yaw":-142.8000030517578,"yaw_relative":0},"timestamp":"2023-09-06 16:15:55.899"}
{"client_id":"59dd0eeb","altitude":224.39999389648438,"gps":{"latitude":49.22664247152707,"longitude":16.59774140350223},"aircraft_orientation":{"pitch":0.4,"roll":0.4,"yaw":-142.8,"compass":-142.8000030517578},"aircraft_velocity":{"velocity_x":0,"velocity_y":0,"velocity_z":0},"gimbal_orientation":{"pitch":-13.300000190734863,"roll":0,"yaw":-142.8000030517578,"yaw_relative":0},"timestamp":"2023-09-06 16:15:56.000"}
