{"client_id":"717c7abd","altitude":221.5,"gps":{"latitude":49.227222758832966,"longitude":16.59720035533908},"aircraft_orientation":{"pitch":2.3,"roll":-0.6,"yaw":-33.7,"compass":-33.70000076293945},"aircraft_velocity":{"velocity_x":0,"velocity_y":0,"velocity_z":0},"gimbal_orientation":{"pitch":0,"roll":0,"yaw":-34,"yaw_relative":0},"timestamp":"2023-09-06 16:06:00.010"}
{"client_id":"717c7abd","altitude":221.5,"gps":{"latitude":49.22722269791613,"longitude":16.597200405891694},"aircraft_orientation":{"pitch":2.4,"roll":-0.6,"yaw":-33.7,"compass":-33.70000076293945},"aircraft_velocity":{"velocity_x":0,"velocity_y":0,"velocity_z":0},"gimbal_orientation":{"pitch":0,"roll":0,"yaw":-34,"yaw_relative":0},"timestamp":"2023-09-06 16:06:00.113"}
{"client_id":"717c7abd","altitude":221.5,"gps":{"latitude":49.227222641073666,"longitude":16.59720045598518},"aircraft_orientation":{"pitch":2.3,"roll":-0.6,"yaw":-33.7,"compass":-33.70000076293945},"aircraft_velocity":{"velocity_x":0,"velocity_y":0,"velocity_z":0},"gimbal_orientation":{"pitch":0,"roll":0,"yaw":-34,"yaw_relative":0},"timestamp":"2023-09-06 16:06:00.216"}
{"client_id":"717c7abd","altitude":221.5,"gps":{"latitude":49.227222525968735,"longitude":16.59720055766759},"aircraft_orientation":{"pitch":2.4,"roll":-0.6,"yaw":-33.6,"compass":-33.599998474121094},"aircraft_velocity":{"velocity_x":0,"velocity_y":0,"velocity_z":0},"gimbal_orientation":{"pitch":0,"roll":0,"yaw":-34,"yaw_relative":0},"timestamp":"2023-09-06 16:06:00.371"}
{"client_id":"717c7abd","altitude":221.5,"gps":{"latitude":49.227222468963426,"longitude":16.597200608961355},"aircraft_orientation":{"pitch":2.3,"roll":-0.6,"yaw":-33.6,"compass":-33.599998474121094},"aircraft_velocity":{"velocity_x":0,"velocity_y":0,"velocity_z":0},"gimbal_orientation":{"pitch":0,"roll":0,"yaw":-34,"yaw_relative":0},"timestamp":"2023-09-06 16:06:00.474"}
{"client_id":"717c7abd","altitude":221.5,"gps":{"latitude":49.22722241430959,"longitude":16.597200658956467},"aircraft_orientation":{"pitch":2.4,"roll":-0.6,"yaw":-33.6,"compass":-33.599998474121094},"aircraft_velocity":{"velocity_x":0,"velocity_y":0,"velocity_z":0},"gimbal_orientation":{"pitch":0,"roll":0,"yaw":-34,"yaw_relative":0},"timestamp":"2023-09-06 16:06:00.585"}
{"client_id":"717c7abd","altitude":221.5,"gps":{"latitude":49.227222340567124,"longitude":16.59720071021744},"aircraft_orientation":{"pitch":2.4,"roll":-0.6,"yaw":-33.6,"compass":-33.599998474121094},"aircraft_velocity":{"velocity_x":0,"velocity_y":0,"velocity_z":0},"gimbal_orientation":{"pitch":0,"roll":0,"yaw":-34,"yaw_relative":0},"timestamp":"2023-09-06 16:06:00.694"}
{"client_id":"717c7abd","altitude":221.5,"gps":{"latitude":49.227222257695615,"longitude":16.597200760920906},"aircraft_orientation":{"pitch":2.4,"roll":-0.6,"yaw":-33.6,"compass":-33.599998474121094},"aircraft_velocity":{"velocity_x":0,"velocity_y":0,"velocity_z":0},"gimbal_orientation":{"pitch":0,"roll":0,"yaw":-34,"yaw_relative":0},"timestamp":"2023-09-06 16:06:00.796"}
{"client_id":"717c7abd","altitude":221.5,"gps":{"latitude":49.227222173234736,"longitude":16.597200813290332},"aircraft_orientation":{"pitch":2.4,"roll":-0.6,"yaw":-33.6,"compass":-33.599998474121094},"aircraft_velocity":{"velocity_x":0,"velocity_y":0,"velocity_z":0},"gimbal_orientation":{"pitch":0,"roll":0,"yaw":-34,"yaw_relative":0},"timestamp":"2023-09-06 16:06:00.899"}
{"client_id":"717c7abd","altitude":221.5,"gps":{"latitude":49.22722210186329,"longitude":16.597200865354765},"aircraft_orientation":{"pitch":2.4,"roll":-0.6,"yaw":-33.6,"compass":-33.599998474121094},"aircraft_velocity":{"velocity_x":0,"velocity_y":0,"velocity_z":0},"gimbal_orientation":{"pitch":0,"roll":0,"yaw":-34,"yaw_relative":0},"timestamp":"2023-09-06 16:06:01.002"}
{"client_id":"717c7abd","altitude":221.5,"gps":{"latitude":49.22722203340025,"longitude":16.597200917927516},"aircraft_orientation":{"pitch":2.4,"roll":-0.6,"yaw":-33.6,"compass":-33.599998474121094},"aircraft_velocity":{"velocity_x":0,"velocity_y":0,"velocity_z":0},"gimbal_orientation":{"pitch":0,"roll":0,"yaw":-34,"yaw_relative":0},"timestamp":"2023-09-06 16:06:01.104"}
{"client_id":"717c7abd","altitude":221.5,"gps":{"latitude":49.22722197145424,"longitude":16.597200969641055},"aircraft_orientation":{"pitch":2.4,"roll":-0.6,"yaw":-33.6,"compass":-33.599998474121094},"aircraft_velocity":{"velocity_x":0,"velocity_y":0,"velocity_z":0},"gimbal_orientation":{"pitch":0,"roll":0,"yaw":-33.900001525878906,"yaw_relative":0},"timestamp":"2023-09-06 16:06:01.206"}
{"client_id":"717c7abd","altitude":221.5,"gps":{"latitude":49.227221914360996,"longitude":16.59720104040815},"aircraft_orientation":{"pitch":2.4,"roll":-0.6,"yaw":-33.6,"compass":-33.599998474121094},"aircraft_velocity":{"velocity_x":0,"velocity_y":0,"velocity_z":0},"gimbal_orientation":{"pitch":0,"roll":0,"yaw":-33.900001525878906,"yaw_relative":0},"timestamp":"2023-09-06 16:06:01.308"}
{"client_id":"717c7abd","altitude":221.5,"gps":{"latitude":49.22722185947592,"longitude":16.597201120928315},"aircraft_orientation":{"pitch":2.4,"roll":-0.6,"yaw":-33.6,"compass":-33.599998474121094},"aircraft_velocity":{"velocity_x":0,"velocity_y":0,"velocity_z":0},"gimbal_orientation":{"pitch":0,"roll":0,"yaw":-33.099998474121094,"yaw_relative":0},"timestamp":"2023-09-06 16:06:01.412"}
{"client_id":"717c7abd","altitude":221.5,"gps":{"latitude":49.22722181016012,"longitude":16.597201184618378},"aircraft_orientation":{"pitch":2.4,"roll":-0.6,"yaw":-33.6,"compass":-33.599998474121094},"aircraft_velocity":{"velocity_x":0,"velocity_y":0,"velocity_z":0},"gimbal_orientation":{"pitch":0,"roll":0,"yaw":-30.299999237060547,"yaw_relative":0},"timestamp":"2023-09-06 16:06:01.515"}
{"client_id":"717c7abd","altitude":221.5,"gps":{"latitude":49.227221759381976,"longitude":16.597201224696448},"aircraft_orientation":{"pitch":2.4,"roll":-0.6,"yaw":-33.6,"compass":-33.599998474121094},"aircraft_velocity":{"velocity_x":0,"velocity_y":0,"velocity_z":0},"gimbal_orientation":{"pitch":0,"roll":0,"yaw":-29.899999618530273,"yaw_relative":0},"timestamp":"2023-09-06 16:06:01.618"}
{"client_id":"717c7abd","altitude":221.5,"gps":{"latitude":49.22722169346582,"longitude":16.597201261013},"aircraft_orientation":{"pitch":2.4,"roll":-0.6,"yaw":-33.6,"compass":-33.599998474121094},"aircraft_velocity":{"velocity_x":0,"velocity_y":0,"velocity_z":0},"gimbal_orientation":{"pitch":0,"roll":0,"yaw":-29.899999618530273,"yaw_relative":0},"timestamp":"2023-09-06 16:06:01.732"}
{"client_id":"717c7abd","altitude":221.5,"gps":{"latitude":49.2272216140401,"longitude":16.59720130322599},"aircraft_orientation":{"pitch":2.4,"roll":-0.6,"yaw":-33.6,"compass":-33.599998474121094},"aircraft_velocity":{"velocity_x":0,"velocity_y":0,"velocity_z":0},"gimbal_orientation":{"pitch":0,"roll":0,"yaw":-29.899999618530273,"yaw_relative":0},"timestamp":"2023-09-06 16:06:01.837"}
{"client_id":"717c7abd","altitude":221.5,"gps":{"latitude":49.22722153679974,"longitude":16.597201342887573},"aircraft_orientation":{"pitch":2.4,"roll":-0.6,"yaw":-33.6,"compass":-33.599998474121094},"aircraft_velocity":{"velocity_x":0,"velocity_y":0,"velocity_z":0},"gimbal_orientation":{"pitch":0,"roll":0,"yaw":-29.899999618530273,"yaw_relative":0},"timestamp":"2023-09-06 16:06:01.939"}
{"client_id":"717c7abd","altitude":221.5,"gps":{"latitude":49.22722146850605,"longitude":16.59720138636643},"aircraft_orientation":{"pitch":2.3,"roll":-0.5,"yaw":-33.7,"compass":-33.70000076293945},"aircraft_velocity":{"velocity_x":0,"velocity_y":0,"velocity_z":0},"gimbal_orientation":{"pitch":0,"roll":0,"yaw":-29.899999618530273,"yaw_relative":0},"timestamp":"2023-09-06 16:06:02.041"}
{"client_id":"717c7abd","altitude":221.5,"gps":{"latitude":49.22722139086836,"longitude":16.597201431770316},"aircraft_orientation":{"pitch":2.6,"roll":-0.7,"yaw":-32.7,"compass":-32.70000076293945},"aircraft_velocity":{"velocity_x":0,"velocity_y":0,"velocity_z":0},"gimbal_orientation":{"pitch":0.5,"roll":0,"yaw":-29.399999618530273,"yaw_relative":0},"timestamp":"2023-09-06 16:06:02.145"}
{"client_id":"717c7abd","altitude":221.5,"gps":{"latitude":49.227221293399474,"longitude":16.597201487635626},"aircraft_orientation":{"pitch":2.6,"roll":-0.8,"yaw":-32.6,"compass":-32.599998474121094},"aircraft_velocity":{"velocity_x":0,"velocity_y":0,"velocity_z":0},"gimbal_orientation":{"pitch":0,"roll":0,"yaw":-30.5,"yaw_relative":0},"timestamp":"2023-09-06 16:06:02.260"}
{"client_id":"717c7abd","altitude":221.5,"gps":{"latitude":49.22722108067258,"longitude":16.597201597601906},"aircraft_orientation":{"pitch":2.5,"roll":-0.7,"yaw":-32.9,"compass":-32.900001525878906},"aircraft_velocity":{"velocity_x":-0.20000000298023224,"velocity_y":0,"velocity_z":0},"gimbal_orientation":{"pitch":0,"roll":0,"yaw":-31.399999618530273,"yaw_relative":0},"timestamp":"2023-09-06 16:06:02.370"}
{"client_id":"717c7abd","altitude":221.5,"gps":{"latitude":49.22722098287474,"longitude":16.59720164362561},"aircraft_orientation":{"pitch":2.6,"roll":-0.8,"yaw":-32.9,"compass":-32.900001525878906},"aircraft_velocity":{"velocity_x":-0.10000000149011612,"velocity_y":0,"velocity_z":0},"gimbal_orientation":{"pitch":0,"roll":0,"yaw":-31.899999618530273,"yaw_relative":0},"timestamp":"2023-09-06 16:06:02.475"}
{"client_id":"717c7abd","altitude":221.5,"gps":{"latitude":49.22722090876426,"longitude":16.597201687314346},"aircraft_orientation":{"pitch":2.6,"roll":-0.8,"yaw":-32.9,"compass":-32.900001525878906},"aircraft_velocity":{"velocity_x":0,"velocity_y":0,"velocity_z":0},"gimbal_orientation":{"pitch":0,"roll":0,"yaw":-32.099998474121094,"yaw_relative":0},"timestamp":"2023-09-06 16:06:02.578"}
{"client_id":"717c7abd","altitude":221.5,"gps":{"latitude":49.22722082396792,"longitude":16.597201729360087},"aircraft_orientation":{"pitch":2.6,"roll":-0.8,"yaw":-32.9,"compass":-32.900001525878906},"aircraft_velocity":{"velocity_x":0,"velocity_y":0,"velocity_z":0},"gimbal_orientation":{"pitch":0,"roll":0,"yaw":-32.20000076293945,"yaw_relative":0},"timestamp":"2023-09-06 16:06:02.692"}
{"client_id":"717c7abd","altitude":221.5,"gps":{"latitude":49.22722072643064,"longitude":16.597201774347486},"aircraft_orientation":{"pitch":2.6,"roll":-0.8,"yaw":-32.8,"compass":-32.79999923706055},"aircraft_velocity":{"velocity_x":0,"velocity_y":0,"velocity_z":0},"gimbal_orientation":{"pitch":0,"roll":0,"yaw":-32.29999923706055,"yaw_relative":0},"timestamp":"2023-09-06 16:06:02.796"}
{"client_id":"717c7abd","altitude":221.5,"gps":{"latitude":49.2272206387487,"longitude":16.597201798566168},"aircraft_orientation":{"pitch":2.6,"roll":-0.8,"yaw":-32.8,"compass":-32.79999923706055},"aircraft_velocity":{"velocity_x":0,"velocity_y":0,"velocity_z":0},"gimbal_orientation":{"pitch":0,"roll":0,"yaw":-32.400001525878906,"yaw_relative":0},"timestamp":"2023-09-06 16:06:02.907"}
{"client_id":"717c7abd","altitude":221.5,"gps":{"latitude":49.22722055597815,"longitude":16.597201814235348},"aircraft_orientation":{"pitch":2.6,"roll":-0.8,"yaw":-32.8,"compass":-32.79999923706055},"aircraft_velocity":{"velocity_x":0,"velocity_y":0,"velocity_z":0},"gimbal_orientation":{"pitch":0,"roll":0,"yaw":-32.400001525878906,"yaw_relative":0},"timestamp":"2023-09-06 16:06:03.009"}
{"client_id":"717c7abd","altitude":221.5,"gps":{"latitude":49.22722046790538,"longitude":16.597201829389657},"aircraft_orientation":{"pitch":2.6,"roll":-0.8,"yaw":-32.8,"compass":-32.79999923706055},"aircraft_velocity":{"velocity_x":0,"velocity_y":0,"velocity_z":0},"gimbal_orientation":{"pitch":0,"roll":0,"yaw":-32.400001525878906,"yaw_relative":0},"timestamp":"2023-09-06 16:06:03.111"}
{"client_id":"717c7abd","altitude":221.5,"gps":{"latitude":49.22722036843025,"longitude":16.5972018570288},"aircraft_orientation":{"pitch":2.6,"roll":-0.7,"yaw":-32.8,"compass":-32.79999923706055},"aircraft_velocity":{"velocity_x":0,"velocity_y":0,"velocity_z":0},"gimbal_orientation":{"pitch":0,"roll":0,"yaw":-32.5,"yaw_relative":0},"timestamp":"2023-09-06 16:06:03.213"}
{"client_id":"717c7abd","altitude":221.5,"gps":{"latitude":49.2272202847836,"longitude":16.59720188827861},"aircraft_orientation":{"pitch":2.5,"roll":-0.8,"yaw":-32.8,"compass":-32.79999923706055},"aircraft_velocity":{"velocity_x":0,"velocity_y":0,"velocity_z":0},"gimbal_orientation":{"pitch":0,"roll":0,"yaw":-32.5,"yaw_relative":0},"timestamp":"2023-09-06 16:06:03.316"}
{"client_id":"717c7abd","altitude":221.5,"gps":{"latitude":49.22722020672577,"longitude":16.597201924713225},"aircraft_orientation":{"pitch":2.5,"roll":-0.8,"yaw":-32.8,"compass":-32.79999923706055},"aircraft_velocity":{"velocity_x":0,"velocity_y":0,"velocity_z":0},"gimbal_orientation":{"pitch":0,"roll":0,"yaw":-32.5,"yaw_relative":0},"timestamp":"2023-09-06 16:06:03.418"}
{"client_id":"717c7abd","altitude":221.5,"gps":{"latitude":49.22722012851486,"longitude":16.5972019672312},"aircraft_orientation":{"pitch":2.5,"roll":-0.8,"yaw":-32.8,"compass":-32.79999923706055},"aircraft_velocity":{"velocity_x":0,"velocity_y":0,"velocity_z":0},"gimbal_orientation":{"pitch":0,"roll":0,"yaw":-32.5,"yaw_relative":0},"timestamp":"2023-09-06 16:06:03.522"}
{"client_id":"717c7abd","altitude":221.5,"gps":{"latitude":49.22722003501937,"longitude":16.597202010431303},"aircraft_orientation":{"pitch":2.5,"roll":-0.8,"yaw":-32.8,"compass":-32.79999923706055},"aircraft_velocity":{"velocity_x":0,"velocity_y":0,"velocity_z":0},"gimbal_orientation":{"pitch":0,"roll":0,"yaw":-32.5,"yaw_relative":0},"timestamp":"2023-09-06 16:06:03.625"}
{"client_id":"717c7abd","altitude":221.5,"gps":{"latitude":49.22721995967778,"longitude":16.59720204062513},"aircraft_orientation":{"pitch":2.5,"roll":-0.8,"yaw":-32.8,"compass":-32.79999923706055},"aircraft_velocity":{"velocity_x":0,"velocity_y":0,"velocity_z":0},"gimbal_orientation":{"pitch":0,"roll":0,"yaw":-32.5,"yaw_relative":0},"timestamp":"2023-09-06 16:06:03.727"}
{"client_id":"717c7abd","altitude":221.5,"gps":{"latitude":49.22721988632289,"longitude":16.597202057406044},"aircraft_orientation":{"pitch":2.6,"roll":-0.8,"yaw":-32.8,"compass":-32.79999923706055},"aircraft_velocity":{"velocity_x":0,"velocity_y":0,"velocity_z":0},"gimbal_orientation":{"pitch":0,"roll":0,"yaw":-32.5,"yaw_relative":0},"timestamp":"2023-09-06 16:06:03.831"}
{"client_id":"717c7abd","altitude":221.5,"gps":{"latitude":49.22721981488957,"longitude":16.597202079181542},"aircraft_orientation":{"pitch":2.5,"roll":-0.8,"yaw":-32.8,"compass":-32.79999923706055},"aircraft_velocity":{"velocity_x":0,"velocity_y":0,"velocity_z":0},"gimbal_orientation":{"pitch":0,"roll":0,"yaw":-32.5,"yaw_relative":0},"timestamp":"2023-09-06 16:06:03.933"}
{"client_id":"717c7abd","altitude":221.5,"gps":{"latitude":49.2272197255401,"longitude":16.597202110795376},"aircraft_orientation":{"pitch":2.5,"roll":-0.8,"yaw":-32.8,"compass":-32.79999923706055},"aircraft_velocity":{"velocity_x":0,"velocity_y":0,"velocity_z":0},"gimbal_orientation":{"pitch":0,"roll":0,"yaw":-32.5,"yaw_relative":0},"timestamp":"2023-09-06 16:06:04.035"}
{"client_id":"717c7abd","altitude":221.5,"gps":{"latitude":49.22721963638605,"longitude":16.59720214996832},"aircraft_orientation":{"pitch":2.5,"roll":-0.8,"yaw":-32.8,"compass":-32.79999923706055},"aircraft_velocity":{"velocity_x":0,"velocity_y":0,"velocity_z":0},"gimbal_orientation":{"pitch":0,"roll":0,"yaw":-32.5,"yaw_relative":0},"timestamp":"2023-09-06 16:06:04.137"}
{"client_id":"717c7abd","altitude":221.5,"gps":{"latitude":49.227219537298495,"longitude":16.59720219099087},"aircraft_orientation":{"pitch":2.5,"roll":-0.7,"yaw":-32.8,"compass":-32.79999923706055},"aircraft_velocity":{"velocity_x":0,"velocity_y":0,"velocity_z":0},"gimbal_orientation":{"pitch":0,"roll":0,"yaw":-32.5,"yaw_relative":0},"timestamp":"2023-09-06 16:06:04.240"}
{"client_id":"717c7abd","altitude":221.5,"gps":{"latitude":49.227219457045514,"longitude":16.59720226094139},"aircraft_orientation":{"pitch":2.3,"roll":-0.7,"yaw":-32.7,"compass":-32.70000076293945},"aircraft_velocity":{"velocity_x":0,"velocity_y":0,"velocity_z":0},"gimbal_orientation":{"pitch":0,"roll":0,"yaw":-32.5,"yaw_relative":0},"timestamp":"2023-09-06 16:06:04.345"}
{"client_id":"717c7abd","altitude":221.5,"gps":{"latitude":49.22721938589717,"longitude":16.59720233622428},"aircraft_orientation":{"pitch":0.2,"roll":-0.6,"yaw":-32.9,"compass":-32.900001525878906},"aircraft_velocity":{"velocity_x":0,"velocity_y":0,"velocity_z":0},"gimbal_orientation":{"pitch":0,"roll":0,"yaw":-32.5,"yaw_relative":0},"timestamp":"2023-09-06 16:06:04.447"}
{"client_id":"717c7abd","altitude":221.5,"gps":{"latitude":49.227219330056194,"longitude":16.597202418931833},"aircraft_orientation":{"pitch":-1.5,"roll":0.6,"yaw":-32.9,"compass":-32.900001525878906},"aircraft_velocity":{"velocity_x":0,"velocity_y":0,"velocity_z":-0.10000000149011612},"gimbal_orientation":{"pitch":0,"roll":0,"yaw":-32.5,"yaw_relative":0},"timestamp":"2023-09-06 16:06:04.550"}
{"client_id":"717c7abd","altitude":221.5,"gps":{"latitude":49.227219281484594,"longitude":16.597202489531682},"aircraft_orientation":{"pitch":-1.1,"roll":0.5,"yaw":-32.6,"compass":-32.599998474121094},"aircraft_velocity":{"velocity_x":0,"velocity_y":0,"velocity_z":-0.20000000298023224},"gimbal_orientation":{"pitch":0,"roll":0,"yaw":-32.5,"yaw_relative":0},"timestamp":"2023-09-06 16:06:04.651"}
{"client_id":"717c7abd","altitude":221.5,"gps":{"latitude":49.22721919551741,"longitude":16.59720262559577},"aircraft_orientation":{"pitch":-0.3,"roll":0.3,"yaw":-32.8,"compass":-32.79999923706055},"aircraft_velocity":{"velocity_x":0,"velocity_y":0,"velocity_z":-0.4000000059604645},"gimbal_orientation":{"pitch":0,"roll":0,"yaw":-32.5,"yaw_relative":0},"timestamp":"2023-09-06 16:06:04.755"}
{"client_id":"717c7abd","altitude":221.5,"gps":{"latitude":49.22721907605964,"longitude":16.59720278001162},"aircraft_orientation":{"pitch":0.4,"roll":0.4,"yaw":-33.1,"compass":-33.099998474121094},"aircraft_velocity":{"velocity_x":0.10000000149011612,"velocity_y":0,"velocity_z":-0.5},"gimbal_orientation":{"pitch":0,"roll":0,"yaw":-32.5,"yaw_relative":0},"timestamp":"2023-09-06 16:06:04.858"}
{"client_id":"717c7abd","altitude":221.60000610351562,"gps":{"latitude":49.22721894298157,"longitude":16.59720298257625},"aircraft_orientation":{"pitch":1.8,"roll":0.4,"yaw":-33,"compass":-33},"aircraft_velocity":{"velocity_x":0,"velocity_y":0,"velocity_z":-0.699999988079071},"gimbal_orientation":{"pitch":0,"roll":0,"yaw":-32.5,"yaw_relative":0},"timestamp":"2023-09-06 16:06:04.965"}
{"client_id":"717c7abd","altitude":221.8000030517578,"gps":{"latitude":49.227218660568674,"longitude":16.59720358120577},"aircraft_orientation":{"pitch":0.6,"roll":-0.3,"yaw":-32.8,"compass":-32.79999923706055},"aircraft_velocity":{"velocity_x":0,"velocity_y":0,"velocity_z":-1.100000023841858},"gimbal_orientation":{"pitch":0,"roll":0,"yaw":-32.5,"yaw_relative":0},"timestamp":"2023-09-06 16:06:05.077"}
{"client_id":"717c7abd","altitude":221.89999389648438,"gps":{"latitude":49.22721848846005,"longitude":16.59720402768225},"aircraft_orientation":{"pitch":-0.7,"roll":-0.6,"yaw":-32.5,"compass":-32.5},"aircraft_velocity":{"velocity_x":0,"velocity_y":0.10000000149011612,"velocity_z":-1.2999999523162842},"gimbal_orientation":{"pitch":0,"roll":0,"yaw":-32.5,"yaw_relative":0},"timestamp":"2023-09-06 16:06:05.188"}
{"client_id":"717c7abd","altitude":222.10000610351562,"gps":{"latitude":49.22721820561073,"longitude":16.597204560549095},"aircraft_orientation":{"pitch":-1.1,"roll":-1.3,"yaw":-32.4,"compass":-32.400001525878906},"aircraft_velocity":{"velocity_x":0,"velocity_y":0.10000000149011612,"velocity_z":-1.5},"gimbal_orientation":{"pitch":0,"roll":0,"yaw":-32.5,"yaw_relative":0},"timestamp":"2023-09-06 16:06:05.290"}
{"client_id":"717c7abd","altitude":222.1999969482422,"gps":{"latitude":49.22721786437355,"longitude":16.597205033169296},"aircraft_orientation":{"pitch":-0.9,"roll":-1.6,"yaw":-32.6,"compass":-32.599998474121094},"aircraft_velocity":{"velocity_x":0,"velocity_y":0.10000000149011612,"velocity_z":-1.600000023841858},"gimbal_orientation":{"pitch":0,"roll":0,"yaw":-32.5,"yaw_relative":0},"timestamp":"2023-09-06 16:06:05.395"}
{"client_id":"717c7abd","altitude":222.39999389648438,"gps":{"latitude":49.227217445734794,"longitude":16.597205598738746},"aircraft_orientation":{"pitch":-1.4,"roll":-1.9,"yaw":-32.7,"compass":-32.70000076293945},"aircraft_velocity":{"velocity_x":0,"velocity_y":0,"velocity_z":-1.7000000476837158},"gimbal_orientation":{"pitch":0,"roll":0,"yaw":-32.5,"yaw_relative":0},"timestamp":"2023-09-06 16:06:05.497"}
{"client_id":"717c7abd","altitude":222.60000610351562,"gps":{"latitude":49.22721706412197,"longitude":16.597206123183984},"aircraft_orientation":{"pitch":-2,"roll":-1.6,"yaw":-32.5,"compass":-32.5},"aircraft_velocity":{"velocity_x":0,"velocity_y":0,"velocity_z":-1.7999999523162842},"gimbal_orientation":{"pitch":0,"roll":0,"yaw":-32.5,"yaw_relative":0},"timestamp":"2023-09-06 16:06:05.605"}
{"client_id":"717c7abd","altitude":222.8000030517578,"gps":{"latitude":49.22721669708861,"longitude":16.597206589789685},"aircraft_orientation":{"pitch":-1.8,"roll":-1.5,"yaw":-32.5,"compass":-32.5},"aircraft_velocity":{"velocity_x":0,"velocity_y":0,"velocity_z":-1.899999976158142},"gimbal_orientation":{"pitch":0,"roll":0,"yaw":-32.5,"yaw_relative":0},"timestamp":"2023-09-06 16:06:05.713"}
{"client_id":"717c7abd","altitude":222.89999389648438,"gps":{"latitude":49.227216414004786,"longitude":16.59720691342479},"aircraft_orientation":{"pitch":-1.9,"roll":-1.5,"yaw":-32.6,"compass":-32.599998474121094},"aircraft_velocity":{"velocity_x":0,"velocity_y":0,"velocity_z":-1.899999976158142},"gimbal_orientation":{"pitch":0,"roll":0,"yaw":-32.5,"yaw_relative":0},"timestamp":"2023-09-06 16:06:05.815"}
{"client_id":"717c7abd","altitude":223.10000610351562,"gps":{"latitude":49.22721623488898,"longitude":16.59720724391393},"aircraft_orientation":{"pitch":-1.7,"roll":-1.5,"yaw":-32.5,"compass":-32.5},"aircraft_velocity":{"velocity_x":0,"velocity_y":0,"velocity_z":-1.7999999523162842},"gimbal_orientation":{"pitch":0,"roll":0,"yaw":-32.5,"yaw_relative":0},"timestamp":"2023-09-06 16:06:05.917"}
{"client_id":"717c7abd","altitude":223.3000030517578,"gps":{"latitude":49.227216122637074,"longitude":16.597207563607153},"aircraft_orientation":{"pitch":-1.7,"roll":-1.1,"yaw":-32.5,"compass":-32.5},"aircraft_velocity":{"velocity_x":0,"velocity_y":0,"velocity_z":-1.7000000476837158},"gimbal_orientation":{"pitch":0,"roll":0,"yaw":-32.5,"yaw_relative":0},"timestamp":"2023-09-06 16:06:06.018"}
{"client_id":"717c7abd","altitude":223.5,"gps":{"latitude":49.227216012319765,"longitude":16.59720791430094},"aircraft_orientation":{"pitch":-1.4,"roll":-1.3,"yaw":-32.5,"compass":-32.5},"aircraft_velocity":{"velocity_x":0,"velocity_y":0,"velocity_z":-1.600000023841858},"gimbal_orientation":{"pitch":0,"roll":0,"yaw":-32.5,"yaw_relative":0},"timestamp":"2023-09-06 16:06:06.121"}
{"client_id":"717c7abd","altitude":223.6999969482422,"gps":{"latitude":49.22721583288152,"longitude":16.597208262167854},"aircraft_orientation":{"pitch":-1.3,"roll":-1.5,"yaw":-32.4,"compass":-32.400001525878906},"aircraft_velocity":{"velocity_x":0,"velocity_y":0,"velocity_z":-1.5},"gimbal_orientation":{"pitch":0,"roll":0,"yaw":-32.5,"yaw_relative":0},"timestamp":"2023-09-06 16:06:06.222"}
{"client_id":"717c7abd","altitude":223.8000030517578,"gps":{"latitude":49.227215723220475,"longitude":16.597208659590425},"aircraft_orientation":{"pitch":-1.2,"roll":-2,"yaw":-32.5,"compass":-32.5},"aircraft_velocity":{"velocity_x":0,"velocity_y":0,"velocity_z":-1.399999976158142},"gimbal_orientation":{"pitch":0,"roll":0,"yaw":-32.5,"yaw_relative":0},"timestamp":"2023-09-06 16:06:06.324"}
{"client_id":"717c7abd","altitude":224,"gps":{"latitude":49.22721562737352,"longitude":16.597209032853343},"aircraft_orientation":{"pitch":-1.3,"roll":-1.6,"yaw":-32.6,"compass":-32.599998474121094},"aircraft_velocity":{"velocity_x":0,"velocity_y":0,"velocity_z":-1.2000000476837158},"gimbal_orientation":{"pitch":0,"roll":0,"yaw":-32.5,"yaw_relative":0},"timestamp":"2023-09-06 16:06:06.428"}
{"client_id":"717c7abd","altitude":224.10000610351562,"gps":{"latitude":49.2272155383644,"longitude":16.597209297304342},"aircraft_orientation":{"pitch":-1,"roll":-1.1,"yaw":-32.5,"compass":-32.5},"aircraft_velocity":{"velocity_x":0,"velocity_y":0,"velocity_z":-1.100000023841858},"gimbal_orientation":{"pitch":0,"roll":0,"yaw":-32.5,"yaw_relative":0},"timestamp":"2023-09-06 16:06:06.529"}
{"client_id":"717c7abd","altitude":224.1999969482422,"gps":{"latitude":49.22721539532513,"longitude":16.597209451798896},"aircraft_orientation":{"pitch":-1,"roll":-0.5,"yaw":-32.6,"compass":-32.599998474121094},"aircraft_velocity":{"velocity_x":0,"velocity_y":0,"velocity_z":-1.100000023841858},"gimbal_orientation":{"pitch":0,"roll":0,"yaw":-32.5,"yaw_relative":0},"timestamp":"2023-09-06 16:06:06.632"}
{"client_id":"717c7abd","altitude":224.3000030517578,"gps":{"latitude":49.227215385126186,"longitude":16.597209542163952},"aircraft_orientation":{"pitch":-1.2,"roll":-0.4,"yaw":-32.5,"compass":-32.5},"aircraft_velocity":{"velocity_x":0,"velocity_y":0,"velocity_z":-1.2000000476837158},"gimbal_orientation":{"pitch":0,"roll":0,"yaw":-32.5,"yaw_relative":0},"timestamp":"2023-09-06 16:06:06.734"}
{"client_id":"717c7abd","altitude":224.39999389648438,"gps":{"latitude":49.227215426602655,"longitude":16.59720964600423},"aircraft_orientation":{"pitch":-1.1,"roll":-1,"yaw":-32.4,"compass":-32.400001525878906},"aircraft_velocity":{"velocity_x":0,"velocity_y":0,"velocity_z":-1.2000000476837158},"gimbal_orientation":{"pitch":0,"roll":0,"yaw":-32.5,"yaw_relative":0},"timestamp":"2023-09-06 16:06:06.837"}
{"client_id":"717c7abd","altitude":224.60000610351562,"gps":{"latitude":49.22721540002645,"longitude":16.597209891877185},"aircraft_orientation":{"pitch":-1.2,"roll":-1.2,"yaw":-32.4,"compass":-32.400001525878906},"aircraft_velocity":{"velocity_x":0,"velocity_y":0,"velocity_z":-1.2999999523162842},"gimbal_orientation":{"pitch":0,"roll":0,"yaw":-32.5,"yaw_relative":0},"timestamp":"2023-09-06 16:06:06.938"}
{"client_id":"717c7abd","altitude":224.6999969482422,"gps":{"latitude":49.227215229416004,"longitude":16.597210254006395},"aircraft_orientation":{"pitch":-0.9,"roll":-0.5,"yaw":-32.5,"compass":-32.5},"aircraft_velocity":{"velocity_x":0,"velocity_y":0,"velocity_z":-1.2000000476837158},"gimbal_orientation":{"pitch":0,"roll":0,"yaw":-32.5,"yaw_relative":0},"timestamp":"2023-09-06 16:06:07.042"}
{"client_id":"717c7abd","altitude":224.8000030517578,"gps":{"latitude":49.22721505781383,"longitude":16.597210547067256},"aircraft_orientation":{"pitch":-0.8,"roll":-0.3,"yaw":-32.5,"compass":-32.5},"aircraft_velocity":{"velocity_x":0,"velocity_y":0,"velocity_z":-1.2999999523162842},"gimbal_orientation":{"pitch":0,"roll":0,"yaw":-32.5,"yaw_relative":0},"timestamp":"2023-09-06 16:06:07.144"}
{"client_id":"717c7abd","altitude":225,"gps":{"latitude":49.227214907340716,"longitude":16.597210711974046},"aircraft_orientation":{"pitch":-1,"roll":-0.4,"yaw":-32.4,"compass":-32.400001525878906},"aircraft_velocity":{"velocity_x":0,"velocity_y":0,"velocity_z":-1.2999999523162842},"gimbal_orientation":{"pitch":0,"roll":0,"yaw":-32.5,"yaw_relative":0},"timestamp":"2023-09-06 16:06:07.247"}
{"client_id":"717c7abd","altitude":225.10000610351562,"gps":{"latitude":49.2272147987235,"longitude":16.597210733339615},"aircraft_orientation":{"pitch":-0.4,"roll":-0.5,"yaw":-32.5,"compass":-32.5},"aircraft_velocity":{"velocity_x":0,"velocity_y":0,"velocity_z":-1.399999976158142},"gimbal_orientation":{"pitch":0,"roll":0,"yaw":-32.5,"yaw_relative":0},"timestamp":"2023-09-06 16:06:07.349"}
{"client_id":"717c7abd","altitude":225.1999969482422,"gps":{"latitude":49.22721472451531,"longitude":16.597210689716466},"aircraft_orientation":{"pitch":-0.2,"roll":-0.4,"yaw":-32.6,"compass":-32.599998474121094},"aircraft_velocity":{"velocity_x":0,"velocity_y":0,"velocity_z":-1.399999976158142},"gimbal_orientation":{"pitch":0,"roll":0,"yaw":-32.5,"yaw_relative":0},"timestamp":"2023-09-06 16:06:07.450"}
{"client_id":"717c7abd","altitude":225.5,"gps":{"latitude":49.22721399580942,"longitude":16.597211394944274},"aircraft_orientation":{"pitch":-0.2,"roll":-1,"yaw":-32.4,"compass":-32.400001525878906},"aircraft_velocity":{"velocity_x":0,"velocity_y":0,"velocity_z":-1.399999976158142},"gimbal_orientation":{"pitch":0,"roll":0,"yaw":-32.5,"yaw_relative":0},"timestamp":"2023-09-06 16:06:07.558"}
{"client_id":"717c7abd","altitude":225.6999969482422,"gps":{"latitude":49.22721355379761,"longitude":16.5972118872936},"aircraft_orientation":{"pitch":-0.3,"roll":-1.1,"yaw":-32.3,"compass":-32.29999923706055},"aircraft_velocity":{"velocity_x":0,"velocity_y":0,"velocity_z":-1.2999999523162842},"gimbal_orientation":{"pitch":0,"roll":0,"yaw":-32.5,"yaw_relative":0},"timestamp":"2023-09-06 16:06:07.669"}
{"client_id":"717c7abd","altitude":225.8000030517578,"gps":{"latitude":49.22721326207001,"longitude":16.597212221888608},"aircraft_orientation":{"pitch":-0.4,"roll":-0.8,"yaw":-32.2,"compass":-32.20000076293945},"aircraft_velocity":{"velocity_x":0,"velocity_y":0,"velocity_z":-1.2999999523162842},"gimbal_orientation":{"pitch":0,"roll":0,"yaw":-32.5,"yaw_relative":0},"timestamp":"2023-09-06 16:06:07.777"}
{"client_id":"717c7abd","altitude":225.89999389648438,"gps":{"latitude":49.22721294355125,"longitude":16.597212493495352},"aircraft_orientation":{"pitch":-0.6,"roll":-0.5,"yaw":-32.3,"compass":-32.29999923706055},"aircraft_velocity":{"velocity_x":0,"velocity_y":0,"velocity_z":-1.2000000476837158},"gimbal_orientation":{"pitch":0,"roll":0,"yaw":-32.5,"yaw_relative":0},"timestamp":"2023-09-06 16:06:07.878"}
{"client_id":"717c7abd","altitude":226.10000610351562,"gps":{"latitude":49.22721266238411,"longitude":16.597212676101293},"aircraft_orientation":{"pitch":-0.5,"roll":-0.7,"yaw":-32.4,"compass":-32.400001525878906},"aircraft_velocity":{"velocity_x":0,"velocity_y":0,"velocity_z":-1.2000000476837158},"gimbal_orientation":{"pitch":0,"roll":0,"yaw":-32.5,"yaw_relative":0},"timestamp":"2023-09-06 16:06:07.979"}
{"client_id":"717c7abd","altitude":226.1999969482422,"gps":{"latitude":49.22721241233979,"longitude":16.5972127937054},"aircraft_orientation":{"pitch":-0.4,"roll":-1.2,"yaw":-32.4,"compass":-32.400001525878906},"aircraft_velocity":{"velocity_x":0,"velocity_y":0,"velocity_z":-1.2000000476837158},"gimbal_orientation":{"pitch":0,"roll":0,"yaw":-32.5,"yaw_relative":0},"timestamp":"2023-09-06 16:06:08.084"}
{"client_id":"717c7abd","altitude":226.3000030517578,"gps":{"latitude":49.22721221163407,"longitude":16.597212888671507},"aircraft_orientation":{"pitch":0.1,"roll":-1.5,"yaw":-32.4,"compass":-32.400001525878906},"aircraft_velocity":{"velocity_x":0,"velocity_y":0,"velocity_z":-1.2000000476837158},"gimbal_orientation":{"pitch":0,"roll":0,"yaw":-32.5,"yaw_relative":0},"timestamp":"2023-09-06 16:06:08.187"}
{"client_id":"717c7abd","altitude":226.39999389648438,"gps":{"latitude":49.22721209191249,"longitude":16.5972128908097},"aircraft_orientation":{"pitch":0.4,"roll":-1.2,"yaw":-32.5,"compass":-32.5},"aircraft_velocity":{"velocity_x":0,"velocity_y":0,"velocity_z":-1},"gimbal_orientation":{"pitch":0,"roll":0,"yaw":-32.5,"yaw_relative":0},"timestamp":"2023-09-06 16:06:08.294"}
{"client_id":"717c7abd","altitude":226.5,"gps":{"latitude":49.22721200724806,"longitude":16.597212893849747},"aircraft_orientation":{"pitch":0.6,"roll":-1.1,"yaw":-32.5,"compass":-32.5},"aircraft_velocity":{"velocity_x":0,"velocity_y":0,"velocity_z":-0.8999999761581421},"gimbal_orientation":{"pitch":0,"roll":0,"yaw":-32.5,"yaw_relative":0},"timestamp":"2023-09-06 16:06:08.396"}
{"client_id":"717c7abd","altitude":226.60000610351562,"gps":{"latitude":49.22721194879018,"longitude":16.597212855175275},"aircraft_orientation":{"pitch":0.4,"roll":-0.9,"yaw":-32.5,"compass":-32.5},"aircraft_velocity":{"velocity_x":0,"velocity_y":0,"velocity_z":-0.699999988079071},"gimbal_orientation":{"pitch":0,"roll":0,"yaw":-32.5,"yaw_relative":0},"timestamp":"2023-09-06 16:06:08.498"}
{"client_id":"717c7abd","altitude":226.6999969482422,"gps":{"latitude":49.227211840055716,"longitude":16.597212857487285},"aircraft_orientation":{"pitch":0.5,"roll":-0.8,"yaw":-32.5,"compass":-32.5},"aircraft_velocity":{"velocity_x":0,"velocity_y":0,"velocity_z":-0.5},"gimbal_orientation":{"pitch":0,"roll":0,"yaw":-32.5,"yaw_relative":0},"timestamp":"2023-09-06 16:06:08.600"}
{"client_id":"717c7abd","altitude":226.6999969482422,"gps":{"latitude":49.22721178924663,"longitude":16.5972127835588},"aircraft_orientation":{"pitch":0.6,"roll":-0.6,"yaw":-32.5,"compass":-32.5},"aircraft_velocity":{"velocity_x":0,"velocity_y":0,"velocity_z":-0.4000000059604645},"gimbal_orientation":{"pitch":0,"roll":0,"yaw":-32.5,"yaw_relative":0},"timestamp":"2023-09-06 16:06:08.701"}
{"client_id":"717c7abd","altitude":226.6999969482422,"gps":{"latitude":49.22721172629913,"longitude":16.597212717848603},"aircraft_orientation":{"pitch":0.5,"roll":-0.6,"yaw":-32.5,"compass":-32.5},"aircraft_velocity":{"velocity_x":0,"velocity_y":0,"velocity_z":-0.20000000298023224},"gimbal_orientation":{"pitch":0,"roll":0,"yaw":-32.5,"yaw_relative":0},"timestamp":"2023-09-06 16:06:08.803"}
{"client_id":"717c7abd","altitude":226.8000030517578,"gps":{"latitude":49.22721170084655,"longitude":16.597212669335804},"aircraft_orientation":{"pitch":0.6,"roll":-0.4,"yaw":-32.6,"compass":-32.599998474121094},"aircraft_velocity":{"velocity_x":0,"velocity_y":0,"velocity_z":-0.10000000149011612},"gimbal_orientation":{"pitch":0,"roll":0,"yaw":-32.5,"yaw_relative":0},"timestamp":"2023-09-06 16:06:08.907"}
{"client_id":"717c7abd","altitude":226.8000030517578,"gps":{"latitude":49.22721164005348,"longitude":16.597212695587746},"aircraft_orientation":{"pitch":0.5,"roll":-0.3,"yaw":-32.5,"compass":-32.5},"aircraft_velocity":{"velocity_x":0,"velocity_y":0,"velocity_z":0},"gimbal_orientation":{"pitch":0,"roll":0,"yaw":-32.5,"yaw_relative":0},"timestamp":"2023-09-06 16:06:09.009"}
{"client_id":"717c7abd","altitude":226.8000030517578,"gps":{"latitude":49.227211647658315,"longitude":16.597212786648036},"aircraft_orientation":{"pitch":0.3,"roll":-0.1,"yaw":-32.5,"compass":-32.5},"aircraft_velocity":{"velocity_x":0,"velocity_y":0,"velocity_z":0},"gimbal_orientation":{"pitch":0,"roll":0,"yaw":-32.5,"yaw_relative":0},"timestamp":"2023-09-06 16:06:09.111"}
{"client_id":"717c7abd","altitude":226.8000030517578,"gps":{"latitude":49.22721164968898,"longitude":16.597212920521457},"aircraft_orientation":{"pitch":0.1,"roll":-0.1,"yaw":-32.5,"compass":-32.5},"aircraft_velocity":{"velocity_x":0,"velocity_y":0,"velocity_z":0},"gimbal_orientation":{"pitch":0,"roll":0,"yaw":-32.5,"yaw_relative":0},"timestamp":"2023-09-06 16:06:09.212"}
{"client_id":"717c7abd","altitude":226.8000030517578,"gps":{"latitude":49.227211738873976,"longitude":16.597213047173543},"aircraft_orientation":{"pitch":0.3,"roll":0,"yaw":-32.5,"compass":-32.5},"aircraft_velocity":{"velocity_x":0,"velocity_y":0,"velocity_z":0},"gimbal_orientation":{"pitch":0,"roll":0,"yaw":-32.5,"yaw_relative":0},"timestamp":"2023-09-06 16:06:09.314"}
{"client_id":"717c7abd","altitude":226.8000030517578,"gps":{"latitude":49.22721181799193,"longitude":16.597213128848068},"aircraft_orientation":{"pitch":0.6,"roll":-0.4,"yaw":-32.5,"compass":-32.5},"aircraft_velocity":{"velocity_x":0,"velocity_y":0,"velocity_z":0},"gimbal_orientation":{"pitch":0,"roll":0,"yaw":-32.5,"yaw_relative":0},"timestamp":"2023-09-06 16:06:09.416"}
{"client_id":"717c7abd","altitude":226.6999969482422,"gps":{"latitude":49.2272119877165,"longitude":16.597213146665283},"aircraft_orientation":{"pitch":1.1,"roll":-0.3,"yaw":-32.4,"compass":-32.400001525878906},"aircraft_velocity":{"velocity_x":0,"velocity_y":0,"velocity_z":0},"gimbal_orientation":{"pitch":0,"roll":0,"yaw":-32.5,"yaw_relative":0},"timestamp":"2023-09-06 16:06:09.528"}
{"client_id":"717c7abd","altitude":226.6999969482422,"gps":{"latitude":49.22721212465399,"longitude":16.597213125168533},"aircraft_orientation":{"pitch":1.3,"roll":-0.2,"yaw":-32.5,"compass":-32.5},"aircraft_velocity":{"velocity_x":0,"velocity_y":0,"velocity_z":0},"gimbal_orientation":{"pitch":0,"roll":0,"yaw":-32.5,"yaw_relative":0},"timestamp":"2023-09-06 16:06:09.632"}
{"client_id":"717c7abd","altitude":226.6999969482422,"gps":{"latitude":49.227212306510474,"longitude":16.597213062760737},"aircraft_orientation":{"pitch":1,"roll":-0.2,"yaw":-32.5,"compass":-32.5},"aircraft_velocity":{"velocity_x":0,"velocity_y":0,"velocity_z":0},"gimbal_orientation":{"pitch":0,"roll":0,"yaw":-32.5,"yaw_relative":0},"timestamp":"2023-09-06 16:06:09.734"}
{"client_id":"717c7abd","altitude":226.6999969482422,"gps":{"latitude":49.227212426745005,"longitude":16.5972130241125},"aircraft_orientation":{"pitch":1,"roll":0.1,"yaw":-32.6,"compass":-32.599998474121094},"aircraft_velocity":{"velocity_x":0,"velocity_y":0,"velocity_z":0},"gimbal_orientation":{"pitch":0,"roll":0,"yaw":-32.5,"yaw_relative":0},"timestamp":"2023-09-06 16:06:09.839"}
{"client_id":"717c7abd","altitude":226.6999969482422,"gps":{"latitude":49.22721257591373,"longitude":16.597212973287693},"aircraft_orientation":{"pitch":1.1,"roll":0.1,"yaw":-32.6,"compass":-32.599998474121094},"aircraft_velocity":{"velocity_x":0,"velocity_y":0,"velocity_z":0},"gimbal_orientation":{"pitch":-1.600000023841858,"roll":0,"yaw":-32.5,"yaw_relative":0},"timestamp":"2023-09-06 16:06:09.940"}
{"client_id":"717c7abd","altitude":226.6999969482422,"gps":{"latitude":49.227212678787424,"longitude":16.597212978928336},"aircraft_orientation":{"pitch":1.2,"roll":0,"yaw":-32.5,"compass":-32.5},"aircraft_velocity":{"velocity_x":0,"velocity_y":0,"velocity_z":0},"gimbal_orientation":{"pitch":-3.299999952316284,"roll":0,"yaw":-32.5,"yaw_relative":0},"timestamp":"2023-09-06 16:06:10.042"}
{"client_id":"717c7abd","altitude":226.6999969482422,"gps":{"latitude":49.22721275764808,"longitude":16.59721305624776},"aircraft_orientation":{"pitch":1.3,"roll":-0.2,"yaw":-32.5,"compass":-32.5},"aircraft_velocity":{"velocity_x":0,"velocity_y":0,"velocity_z":0},"gimbal_orientation":{"pitch":-3.9000000953674316,"roll":0,"yaw":-32.5,"yaw_relative":0},"timestamp":"2023-09-06 16:06:10.144"}
{"client_id":"717c7abd","altitude":226.6999969482422,"gps":{"latitude":49.22721277834724,"longitude":16.597213216002544},"aircraft_orientation":{"pitch":1.1,"roll":-0.6,"yaw":-32.4,"compass":-32.400001525878906},"aircraft_velocity":{"velocity_x":0,"velocity_y":0,"velocity_z":0},"gimbal_orientation":{"pitch":-4.199999809265137,"roll":0,"yaw":-32.5,"yaw_relative":0},"timestamp":"2023-09-06 16:06:10.245"}
{"client_id":"717c7abd","altitude":226.8000030517578,"gps":{"latitude":49.227212796123325,"longitude":16.597213377780747},"aircraft_orientation":{"pitch":1,"roll":-0.7,"yaw":-32.4,"compass":-32.400001525878906},"aircraft_velocity":{"velocity_x":0,"velocity_y":0,"velocity_z":0},"gimbal_orientation":{"pitch":-4.199999809265137,"roll":0,"yaw":-32.5,"yaw_relative":0},"timestamp":"2023-09-06 16:06:10.347"}
{"client_id":"717c7abd","altitude":226.8000030517578,"gps":{"latitude":49.22721281169777,"longitude":16.597213509939017},"aircraft_orientation":{"pitch":0.8,"roll":-0.8,"yaw":-32.5,"compass":-32.5},"aircraft_velocity":{"velocity_x":0,"velocity_y":0,"velocity_z":0},"gimbal_orientation":{"pitch":-4.199999809265137,"roll":0,"yaw":-32.5,"yaw_relative":0},"timestamp":"2023-09-06 16:06:10.448"}
{"client_id":"717c7abd","altitude":226.8000030517578,"gps":{"latitude":49.227212791257536,"longitude":16.597213672432137},"aircraft_orientation":{"pitch":0.9,"roll":-0.8,"yaw":-32.6,"compass":-32.599998474121094},"aircraft_velocity":{"velocity_x":0,"velocity_y":0,"velocity_z":0},"gimbal_orientation":{"pitch":-4.199999809265137,"roll":0,"yaw":-32.5,"yaw_relative":0},"timestamp":"2023-09-06 16:06:10.552"}
{"client_id":"717c7abd","altitude":226.8000030517578,"gps":{"latitude":49.22721270329225,"longitude":16.59721401573078},"aircraft_orientation":{"pitch":0.4,"roll":-0.6,"yaw":-32.8,"compass":-32.79999923706055},"aircraft_velocity":{"velocity_x":0,"velocity_y":0,"velocity_z":0},"gimbal_orientation":{"pitch":-4.199999809265137,"roll":0,"yaw":-32.5,"yaw_relative":0},"timestamp":"2023-09-06 16:06:10.663"}
{"client_id":"717c7abd","altitude":226.8000030517578,"gps":{"latitude":49.227212689667056,"longitude":16.59721415646152},"aircraft_orientation":{"pitch":0.4,"roll":-0.6,"yaw":-32.7,"compass":-32.70000076293945},"aircraft_velocity":{"velocity_x":0,"velocity_y":0,"velocity_z":0},"gimbal_orientation":{"pitch":-4.199999809265137,"roll":0,"yaw":-32.5,"yaw_relative":0},"timestamp":"2023-09-06 16:06:10.771"}
{"client_id":"717c7abd","altitude":226.8000030517578,"gps":{"latitude":49.22721268433716,"longitude":16.59721430226555},"aircraft_orientation":{"pitch":0.4,"roll":-0.5,"yaw":-32.8,"compass":-32.79999923706055},"aircraft_velocity":{"velocity_x":0,"velocity_y":0,"velocity_z":0},"gimbal_orientation":{"pitch":-4.199999809265137,"roll":0,"yaw":-32.5,"yaw_relative":0},"timestamp":"2023-09-06 16:06:10.881"}
{"client_id":"717c7abd","altitude":226.8000030517578,"gps":{"latitude":49.227212681940095,"longitude":16.59721445041111},"aircraft_orientation":{"pitch":0.7,"roll":-0.4,"yaw":-32.6,"compass":-32.599998474121094},"aircraft_velocity":{"velocity_x":0,"velocity_y":0,"velocity_z":0},"gimbal_orientation":{"pitch":-4.199999809265137,"roll":0,"yaw":-32.5,"yaw_relative":0},"timestamp":"2023-09-06 16:06:10.991"}
{"client_id":"717c7abd","altitude":226.8000030517578,"gps":{"latitude":49.22721268921761,"longitude":16.59721455328395},"aircraft_orientation":{"pitch":0.5,"roll":-0.9,"yaw":-32.5,"compass":-32.5},"aircraft_velocity":{"velocity_x":0,"velocity_y":0,"velocity_z":0},"gimbal_orientation":{"pitch":-4.199999809265137,"roll":0,"yaw":-32.5,"yaw_relative":0},"timestamp":"2023-09-06 16:06:11.094"}
{"client_id":"717c7abd","altitude":226.8000030517578,"gps":{"latitude":49.22721269472663,"longitude":16.597214619430318},"aircraft_orientation":{"pitch":0.1,"roll":-1.2,"yaw":-32.6,"compass":-32.599998474121094},"aircraft_velocity":{"velocity_x":0,"velocity_y":0,"velocity_z":0},"gimbal_orientation":{"pitch":-4.199999809265137,"roll":0,"yaw":-32.5,"yaw_relative":0},"timestamp":"2023-09-06 16:06:11.200"}
{"client_id":"717c7abd","altitude":226.8000030517578,"gps":{"latitude":49.22721272582829,"longitude":16.597214606506032},"aircraft_orientation":{"pitch":0.2,"roll":-0.8,"yaw":-32.5,"compass":-32.5},"aircraft_velocity":{"velocity_x":0,"velocity_y":0,"velocity_z":0},"gimbal_orientation":{"pitch":-4.199999809265137,"roll":0,"yaw":-32.5,"yaw_relative":0},"timestamp":"2023-09-06 16:06:11.310"}
{"client_id":"717c7abd","altitude":226.6999969482422,"gps":{"latitude":49.2272127643475,"longitude":16.59721458697367},"aircraft_orientation":{"pitch":0.3,"roll":-0.8,"yaw":-32.5,"compass":-32.5},"aircraft_velocity":{"velocity_x":0,"velocity_y":0,"velocity_z":0},"gimbal_orientation":{"pitch":-4.199999809265137,"roll":0,"yaw":-32.5,"yaw_relative":0},"timestamp":"2023-09-06 16:06:11.419"}
{"client_id":"717c7abd","altitude":226.6999969482422,"gps":{"latitude":49.227212829314276,"longitude":16.59721451080205},"aircraft_orientation":{"pitch":0.6,"roll":-1,"yaw":-32.6,"compass":-32.599998474121094},"aircraft_velocity":{"velocity_x":0,"velocity_y":0,"velocity_z":0},"gimbal_orientation":{"pitch":-4.199999809265137,"roll":0,"yaw":-32.5,"yaw_relative":0},"timestamp":"2023-09-06 16:06:11.521"}
{"client_id":"717c7abd","altitude":226.6999969482422,"gps":{"latitude":49.227212882919396,"longitude":16.59721445340524},"aircraft_orientation":{"pitch":0.7,"roll":-1.1,"yaw":-32.7,"compass":-32.70000076293945},"aircraft_velocity":{"velocity_x":0,"velocity_y":0,"velocity_z":0},"gimbal_orientation":{"pitch":-4.199999809265137,"roll":0,"yaw":-32.5,"yaw_relative":0},"timestamp":"2023-09-06 16:06:11.622"}
{"client_id":"717c7abd","altitude":226.6999969482422,"gps":{"latitude":49.22721295100952,"longitude":16.59721433567324},"aircraft_orientation":{"pitch":0.6,"roll":-1.1,"yaw":-32.7,"compass":-32.70000076293945},"aircraft_velocity":{"velocity_x":0,"velocity_y":0,"velocity_z":0},"gimbal_orientation":{"pitch":-4.199999809265137,"roll":0,"yaw":-32.5,"yaw_relative":0},"timestamp":"2023-09-06 16:06:11.723"}
{"client_id":"717c7abd","altitude":226.8000030517578,"gps":{"latitude":49.227212997780065,"longitude":16.597214236706208},"aircraft_orientation":{"pitch":0.3,"roll":-0.7,"yaw":-32.7,"compass":-32.70000076293945},"aircraft_velocity":{"velocity_x":0,"velocity_y":0,"velocity_z":0},"gimbal_orientation":{"pitch":-4.199999809265137,"roll":0,"yaw":-32.5,"yaw_relative":0},"timestamp":"2023-09-06 16:06:11.825"}
{"client_id":"717c7abd","altitude":226.8000030517578,"gps":{"latitude":49.22721306389163,"longitude":16.597214078135302},"aircraft_orientation":{"pitch":0,"roll":-0.6,"yaw":-32.7,"compass":-32.70000076293945},"aircraft_velocity":{"velocity_x":0,"velocity_y":0,"velocity_z":0},"gimbal_orientation":{"pitch":-4.199999809265137,"roll":0,"yaw":-32.5,"yaw_relative":0},"timestamp":"2023-09-06 16:06:11.926"}
{"client_id":"717c7abd","altitude":226.8000030517578,"gps":{"latitude":49.22721312315722,"longitude":16.597213941743274},"aircraft_orientation":{"pitch":0,"roll":-0.6,"yaw":-32.6,"compass":-32.599998474121094},"aircraft_velocity":{"velocity_x":0,"velocity_y":0,"velocity_z":0},"gimbal_orientation":{"pitch":-4.199999809265137,"roll":0,"yaw":-32.5,"yaw_relative":0},"timestamp":"2023-09-06 16:06:12.037"}
{"client_id":"717c7abd","altitude":226.8000030517578,"gps":{"latitude":49.227213170823404,"longitude":16.597213797972493},"aircraft_orientation":{"pitch":0.1,"roll":-0.5,"yaw":-32.6,"compass":-32.599998474121094},"aircraft_velocity":{"velocity_x":0,"velocity_y":0,"velocity_z":0},"gimbal_orientation":{"pitch":-4.199999809265137,"roll":0,"yaw":-32.5,"yaw_relative":0},"timestamp":"2023-09-06 16:06:12.139"}
{"client_id":"717c7abd","altitude":226.8000030517578,"gps":{"latitude":49.227213194755016,"longitude":16.597213710227717},"aircraft_orientation":{"pitch":0.3,"roll":-0.5,"yaw":-32.6,"compass":-32.599998474121094},"aircraft_velocity":{"velocity_x":0,"velocity_y":0,"velocity_z":0},"gimbal_orientation":{"pitch":-4.199999809265137,"roll":0,"yaw":-32.5,"yaw_relative":0},"timestamp":"2023-09-06 16:06:12.241"}
{"client_id":"717c7abd","altitude":226.8000030517578,"gps":{"latitude":49.227213211298384,"longitude":16.597213660606464},"aircraft_orientation":{"pitch":0.4,"roll":-0.9,"yaw":-32.6,"compass":-32.599998474121094},"aircraft_velocity":{"velocity_x":0,"velocity_y":0,"velocity_z":0},"gimbal_orientation":{"pitch":-4.199999809265137,"roll":0,"yaw":-32.5,"yaw_relative":0},"timestamp":"2023-09-06 16:06:12.343"}
{"client_id":"717c7abd","altitude":226.8000030517578,"gps":{"latitude":49.227213225845276,"longitude":16.597213653726193},"aircraft_orientation":{"pitch":0.3,"roll":-0.9,"yaw":-32.6,"compass":-32.599998474121094},"aircraft_velocity":{"velocity_x":0,"velocity_y":0,"velocity_z":0},"gimbal_orientation":{"pitch":-4.199999809265137,"roll":0,"yaw":-32.5,"yaw_relative":0},"timestamp":"2023-09-06 16:06:12.445"}
{"client_id":"717c7abd","altitude":226.8000030517578,"gps":{"latitude":49.22721321880062,"longitude":16.59721370609234},"aircraft_orientation":{"pitch":0.2,"roll":-0.7,"yaw":-32.6,"compass":-32.599998474121094},"aircraft_velocity":{"velocity_x":0,"velocity_y":0,"velocity_z":0},"gimbal_orientation":{"pitch":-4.199999809265137,"roll":0,"yaw":-32.5,"yaw_relative":0},"timestamp":"2023-09-06 16:06:12.548"}
{"client_id":"717c7abd","altitude":226.8000030517578,"gps":{"latitude":49.22721321187648,"longitude":16.59721377376692},"aircraft_orientation":{"pitch":0,"roll":-0.5,"yaw":-32.6,"compass":-32.599998474121094},"aircraft_velocity":{"velocity_x":0,"velocity_y":0,"velocity_z":0},"gimbal_orientation":{"pitch":-4.199999809265137,"roll":0,"yaw":-32.5,"yaw_relative":0},"timestamp":"2023-09-06 16:06:12.651"}
{"client_id":"717c7abd","altitude":226.8000030517578,"gps":{"latitude":49.22721317080549,"longitude":16.59721390559397},"aircraft_orientation":{"pitch":-0.2,"roll":-0.6,"yaw":-32.4,"compass":-32.400001525878906},"aircraft_velocity":{"velocity_x":0,"velocity_y":0,"velocity_z":0},"gimbal_orientation":{"pitch":-4.199999809265137,"roll":0,"yaw":-32.5,"yaw_relative":0},"timestamp":"2023-09-06 16:06:12.753"}
{"client_id":"717c7abd","altitude":226.8000030517578,"gps":{"latitude":49.22721309702558,"longitude":16.597214174200026},"aircraft_orientation":{"pitch":0.5,"roll":-0.8,"yaw":-32.4,"compass":-32.400001525878906},"aircraft_velocity":{"velocity_x":0,"velocity_y":0,"velocity_z":0},"gimbal_orientation":{"pitch":-4.199999809265137,"roll":0,"yaw":-32.5,"yaw_relative":0},"timestamp":"2023-09-06 16:06:12.864"}
{"client_id":"717c7abd","altitude":226.8000030517578,"gps":{"latitude":49.22721309070722,"longitude":16.59721428862963},"aircraft_orientation":{"pitch":0.1,"roll":-0.9,"yaw":-32.4,"compass":-32.400001525878906},"aircraft_velocity":{"velocity_x":0,"velocity_y":0,"velocity_z":0},"gimbal_orientation":{"pitch":-4.199999809265137,"roll":0,"yaw":-32.5,"yaw_relative":0},"timestamp":"2023-09-06 16:06:12.972"}
{"client_id":"717c7abd","altitude":226.8000030517578,"gps":{"latitude":49.22721307632155,"longitude":16.597214439113426},"aircraft_orientation":{"pitch":0,"roll":-0.9,"yaw":-32.3,"compass":-32.29999923706055},"aircraft_velocity":{"velocity_x":0,"velocity_y":0,"velocity_z":0},"gimbal_orientation":{"pitch":-4.199999809265137,"roll":0,"yaw":-32.5,"yaw_relative":0},"timestamp":"2023-09-06 16:06:13.074"}
{"client_id":"717c7abd","altitude":226.8000030517578,"gps":{"latitude":49.22721306043119,"longitude":16.597214562263066},"aircraft_orientation":{"pitch":0.1,"roll":-1,"yaw":-32.4,"compass":-32.400001525878906},"aircraft_velocity":{"velocity_x":0,"velocity_y":0,"velocity_z":0},"gimbal_orientation":{"pitch":-4.199999809265137,"roll":0,"yaw":-32.5,"yaw_relative":0},"timestamp":"2023-09-06 16:06:13.181"}
{"client_id":"717c7abd","altitude":226.8000030517578,"gps":{"latitude":49.22721303805148,"longitude":16.597214691758435},"aircraft_orientation":{"pitch":0.3,"roll":-0.8,"yaw":-32.3,"compass":-32.29999923706055},"aircraft_velocity":{"velocity_x":0,"velocity_y":0,"velocity_z":0},"gimbal_orientation":{"pitch":-4.199999809265137,"roll":0,"yaw":-32.5,"yaw_relative":0},"timestamp":"2023-09-06 16:06:13.291"}
{"client_id":"717c7abd","altitude":226.8000030517578,"gps":{"latitude":49.2272130075719,"longitude":16.597214783307358},"aircraft_orientation":{"pitch":0.1,"roll":-0.6,"yaw":-32.3,"compass":-32.29999923706055},"aircraft_velocity":{"velocity_x":0,"velocity_y":0,"velocity_z":0},"gimbal_orientation":{"pitch":-4.199999809265137,"roll":0,"yaw":-32.5,"yaw_relative":0},"timestamp":"2023-09-06 16:06:13.394"}
{"client_id":"717c7abd","altitude":226.8000030517578,"gps":{"latitude":49.22721297692784,"longitude":16.59721487591227},"aircraft_orientation":{"pitch":0,"roll":-0.6,"yaw":-32.3,"compass":-32.29999923706055},"aircraft_velocity":{"velocity_x":0,"velocity_y":0,"velocity_z":0},"gimbal_orientation":{"pitch":-4.199999809265137,"roll":0,"yaw":-32.5,"yaw_relative":0},"timestamp":"2023-09-06 16:06:13.501"}
{"client_id":"717c7abd","altitude":226.8000030517578,"gps":{"latitude":49.227212945837586,"longitude":16.59721494991946},"aircraft_orientation":{"pitch":-0.3,"roll":-0.5,"yaw":-32.4,"compass":-32.400001525878906},"aircraft_velocity":{"velocity_x":0,"velocity_y":0,"velocity_z":0},"gimbal_orientation":{"pitch":-4.199999809265137,"roll":0,"yaw":-32.5,"yaw_relative":0},"timestamp":"2023-09-06 16:06:13.610"}
{"client_id":"717c7abd","altitude":226.8000030517578,"gps":{"latitude":49.22721292808917,"longitude":16.59721499742547},"aircraft_orientation":{"pitch":-0.6,"roll":-0.4,"yaw":-32.5,"compass":-32.5},"aircraft_velocity":{"velocity_x":0,"velocity_y":0,"velocity_z":0},"gimbal_orientation":{"pitch":-4.199999809265137,"roll":0,"yaw":-32.5,"yaw_relative":0},"timestamp":"2023-09-06 16:06:13.713"}
{"client_id":"717c7abd","altitude":226.8000030517578,"gps":{"latitude":49.22721291706623,"longitude":16.59721501830896},"aircraft_orientation":{"pitch":-0.8,"roll":0.1,"yaw":-32.6,"compass":-32.599998474121094},"aircraft_velocity":{"velocity_x":0,"velocity_y":0,"velocity_z":0},"gimbal_orientation":{"pitch":-4.199999809265137,"roll":0,"yaw":-32.5,"yaw_relative":0},"timestamp":"2023-09-06 16:06:13.820"}
{"client_id":"717c7abd","altitude":226.8000030517578,"gps":{"latitude":49.22721293389946,"longitude":16.597215029734542},"aircraft_orientation":{"pitch":-0.8,"roll":0.3,"yaw":-32.5,"compass":-32.5},"aircraft_velocity":{"velocity_x":0,"velocity_y":0,"velocity_z":0},"gimbal_orientation":{"pitch":-4.199999809265137,"roll":0,"yaw":-32.5,"yaw_relative":0},"timestamp":"2023-09-06 16:06:13.932"}
{"client_id":"717c7abd","altitude":226.8000030517578,"gps":{"latitude":49.2272129651037,"longitude":16.597215061397566},"aircraft_orientation":{"pitch":-0.7,"roll":-0.2,"yaw":-32.6,"compass":-32.599998474121094},"aircraft_velocity":{"velocity_x":0,"velocity_y":0,"velocity_z":0},"gimbal_orientation":{"pitch":-4.199999809265137,"roll":0,"yaw":-32.5,"yaw_relative":0},"timestamp":"2023-09-06 16:06:14.040"}
{"client_id":"717c7abd","altitude":226.8000030517578,"gps":{"latitude":49.22721301781155,"longitude":16.59721508814142},"aircraft_orientation":{"pitch":-0.5,"roll":-0.4,"yaw":-32.5,"compass":-32.5},"aircraft_velocity":{"velocity_x":0,"velocity_y":0,"velocity_z":0},"gimbal_orientation":{"pitch":-4.199999809265137,"roll":0,"yaw":-32.5,"yaw_relative":0},"timestamp":"2023-09-06 16:06:14.149"}
{"client_id":"717c7abd","altitude":226.8000030517578,"gps":{"latitude":49.22721316237504,"longitude":16.597215148840633},"aircraft_orientation":{"pitch":-0.4,"roll":-0.2,"yaw":-32.6,"compass":-32.599998474121094},"aircraft_velocity":{"velocity_x":0,"velocity_y":0,"velocity_z":0},"gimbal_orientation":{"pitch":-4.199999809265137,"roll":0,"yaw":-32.5,"yaw_relative":0},"timestamp":"2023-09-06 16:06:14.251"}
{"client_id":"717c7abd","altitude":226.8000030517578,"gps":{"latitude":49.22721316237504,"longitude":16.597215148840633},"aircraft_orientation":{"pitch":-0.4,"roll":-0.2,"yaw":-32.6,"compass":-32.599998474121094},"aircraft_velocity":{"velocity_x":0,"velocity_y":0,"velocity_z":0},"gimbal_orientation":{"pitch":-4.199999809265137,"roll":0,"yaw":-32.5,"yaw_relative":0},"timestamp":"2023-09-06 16:06:14.354"}
{"client_id":"717c7abd","altitude":226.8000030517578,"gps":{"latitude":49.22721340083135,"longitude":16.59721523102019},"aircraft_orientation":{"pitch":0,"roll":-0.6,"yaw":-32.6,"compass":-32.599998474121094},"aircraft_velocity":{"velocity_x":0,"velocity_y":0,"velocity_z":0},"gimbal_orientation":{"pitch":-4.199999809265137,"roll":0,"yaw":-32.5,"yaw_relative":0},"timestamp":"2023-09-06 16:06:14.465"}
{"client_id":"717c7abd","altitude":226.8000030517578,"gps":{"latitude":49.22721350394443,"longitude":16.597215274243247},"aircraft_orientation":{"pitch":-0.1,"roll":-0.4,"yaw":-32.6,"compass":-32.599998474121094},"aircraft_velocity":{"velocity_x":0,"velocity_y":0,"velocity_z":0},"gimbal_orientation":{"pitch":-4.199999809265137,"roll":0,"yaw":-32.5,"yaw_relative":0},"timestamp":"2023-09-06 16:06:14.570"}
{"client_id":"717c7abd","altitude":226.8000030517578,"gps":{"latitude":49.2272136048591,"longitude":16.59721533791691},"aircraft_orientation":{"pitch":-0.2,"roll":-0.3,"yaw":-32.7,"compass":-32.70000076293945},"aircraft_velocity":{"velocity_x":0,"velocity_y":0,"velocity_z":0},"gimbal_orientation":{"pitch":-4.199999809265137,"roll":0,"yaw":-32.5,"yaw_relative":0},"timestamp":"2023-09-06 16:06:14.679"}
{"client_id":"717c7abd","altitude":226.8000030517578,"gps":{"latitude":49.22721369201342,"longitude":16.597215410864845},"aircraft_orientation":{"pitch":-0.2,"roll":-0.5,"yaw":-32.6,"compass":-32.599998474121094},"aircraft_velocity":{"velocity_x":0,"velocity_y":0,"velocity_z":0},"gimbal_orientation":{"pitch":-4.199999809265137,"roll":0,"yaw":-32.5,"yaw_relative":0},"timestamp":"2023-09-06 16:06:14.782"}
{"client_id":"717c7abd","altitude":226.8000030517578,"gps":{"latitude":49.227213794082665,"longitude":16.597215487092214},"aircraft_orientation":{"pitch":0.1,"roll":-0.8,"yaw":-32.6,"compass":-32.599998474121094},"aircraft_velocity":{"velocity_x":0,"velocity_y":0,"velocity_z":0},"gimbal_orientation":{"pitch":-4.199999809265137,"roll":0,"yaw":-32.5,"yaw_relative":0},"timestamp":"2023-09-06 16:06:14.887"}
{"client_id":"717c7abd","altitude":226.8000030517578,"gps":{"latitude":49.22721389826888,"longitude":16.59721554058321},"aircraft_orientation":{"pitch":0.2,"roll":-1,"yaw":-32.6,"compass":-32.599998474121094},"aircraft_velocity":{"velocity_x":0,"velocity_y":0,"velocity_z":0},"gimbal_orientation":{"pitch":-4.199999809265137,"roll":0,"yaw":-32.5,"yaw_relative":0},"timestamp":"2023-09-06 16:06:14.998"}
{"client_id":"717c7abd","altitude":226.8000030517578,"gps":{"latitude":49.22721400533582,"longitude":16.59721558422276},"aircraft_orientation":{"pitch":0.1,"roll":-0.7,"yaw":-32.7,"compass":-32.70000076293945},"aircraft_velocity":{"velocity_x":0,"velocity_y":0,"velocity_z":0},"gimbal_orientation":{"pitch":-4.199999809265137,"roll":0,"yaw":-32.5,"yaw_relative":0},"timestamp":"2023-09-06 16:06:15.103"}
{"client_id":"717c7abd","altitude":226.8000030517578,"gps":{"latitude":49.22721410525226,"longitude":16.597215609205552},"aircraft_orientation":{"pitch":0,"roll":-0.5,"yaw":-32.8,"compass":-32.79999923706055},"aircraft_velocity":{"velocity_x":0,"velocity_y":0,"velocity_z":0},"gimbal_orientation":{"pitch":-4.199999809265137,"roll":0,"yaw":-32.5,"yaw_relative":0},"timestamp":"2023-09-06 16:06:15.205"}
{"client_id":"717c7abd","altitude":226.8000030517578,"gps":{"latitude":49.22721420396202,"longitude":16.597215636221605},"aircraft_orientation":{"pitch":0,"roll":-0.3,"yaw":-32.8,"compass":-32.79999923706055},"aircraft_velocity":{"velocity_x":0,"velocity_y":0,"velocity_z":0},"gimbal_orientation":{"pitch":-4.199999809265137,"roll":0,"yaw":-32.5,"yaw_relative":0},"timestamp":"2023-09-06 16:06:15.312"}
{"client_id":"717c7abd","altitude":226.8000030517578,"gps":{"latitude":49.22721429644787,"longitude":16.59721565907932},"aircraft_orientation":{"pitch":0,"roll":-0.5,"yaw":-32.8,"compass":-32.79999923706055},"aircraft_velocity":{"velocity_x":0,"velocity_y":0,"velocity_z":0},"gimbal_orientation":{"pitch":-4.199999809265137,"roll":0,"yaw":-32.5,"yaw_relative":0},"timestamp":"2023-09-06 16:06:15.415"}
{"client_id":"717c7abd","altitude":226.8000030517578,"gps":{"latitude":49.227214372657414,"longitude":16.59721568923052},"aircraft_orientation":{"pitch":0,"roll":-0.4,"yaw":-32.6,"compass":-32.599998474121094},"aircraft_velocity":{"velocity_x":0,"velocity_y":0,"velocity_z":0},"gimbal_orientation":{"pitch":-4.199999809265137,"roll":0,"yaw":-32.5,"yaw_relative":0},"timestamp":"2023-09-06 16:06:15.516"}
{"client_id":"717c7abd","altitude":226.8000030517578,"gps":{"latitude":49.2272144311153,"longitude":16.597215708444775},"aircraft_orientation":{"pitch":0.4,"roll":0,"yaw":-32.6,"compass":-32.599998474121094},"aircraft_velocity":{"velocity_x":0,"velocity_y":0,"velocity_z":0},"gimbal_orientation":{"pitch":-4.199999809265137,"roll":0,"yaw":-32.5,"yaw_relative":0},"timestamp":"2023-09-06 16:06:15.617"}
{"client_id":"717c7abd","altitude":226.8000030517578,"gps":{"latitude":49.227214510622446,"longitude":16.597215749670656},"aircraft_orientation":{"pitch":0.5,"roll":0.7,"yaw":-32.5,"compass":-32.5},"aircraft_velocity":{"velocity_x":0,"velocity_y":0,"velocity_z":0},"gimbal_orientation":{"pitch":-4.199999809265137,"roll":0,"yaw":-32.5,"yaw_relative":0},"timestamp":"2023-09-06 16:06:15.718"}
{"client_id":"717c7abd","altitude":226.8000030517578,"gps":{"latitude":49.22721461630032,"longitude":16.597215809422103},"aircraft_orientation":{"pitch":0.6,"roll":0.4,"yaw":-32.4,"compass":-32.400001525878906},"aircraft_velocity":{"velocity_x":0,"velocity_y":0,"velocity_z":0},"gimbal_orientation":{"pitch":-4.199999809265137,"roll":0,"yaw":-32.5,"yaw_relative":0},"timestamp":"2023-09-06 16:06:15.821"}
