{"client_id":"15357fc2","altitude":221.5,"gps":{"latitude":49.22718961399198,"longitude":16.59724327381568},"aircraft_orientation":{"pitch":2.7,"roll":0.7,"yaw":-113.8,"compass":-113.80000305175781},"aircraft_velocity":{"velocity_x":0,"velocity_y":0,"velocity_z":0},"gimbal_orientation":{"pitch":0,"roll":0,"yaw":-122.5,"yaw_relative":0},"timestamp":"2023-09-06 15:58:58.589"}
{"client_id":"15357fc2","altitude":221.5,"gps":{"latitude":49.22718963882794,"longitude":16.597243298304086},"aircraft_orientation":{"pitch":2.7,"roll":0.7,"yaw":-113.8,"compass":-113.80000305175781},"aircraft_velocity":{"velocity_x":0,"velocity_y":0,"velocity_z":0},"gimbal_orientation":{"pitch":0,"roll":0,"yaw":-122.5999984741211,"yaw_relative":0},"timestamp":"2023-09-06 15:58:58.691"}
{"client_id":"15357fc2","altitude":221.5,"gps":{"latitude":49.22718959170142,"longitude":16.597243399166587},"aircraft_orientation":{"pitch":2.7,"roll":0.7,"yaw":-113.8,"compass":-113.80000305175781},"aircraft_velocity":{"velocity_x":0,"velocity_y":0,"velocity_z":0},"gimbal_orientation":{"pitch":0,"roll":0,"yaw":-122.5999984741211,"yaw_relative":0},"timestamp":"2023-09-06 15:58:58.792"}
{"client_id":"15357fc2","altitude":221.5,"gps":{"latitude":49.2271896093341,"longitude":16.59724343242094},"aircraft_orientation":{"pitch":2.7,"roll":0.7,"yaw":-113.8,"compass":-113.80000305175781},"aircraft_velocity":{"velocity_x":0,"velocity_y":0,"velocity_z":0},"gimbal_orientation":{"pitch":0,"roll":0,"yaw":-122.5999984741211,"yaw_relative":0},"timestamp":"2023-09-06 15:58:58.894"}
{"client_id":"15357fc2","altitude":221.5,"gps":{"latitude":49.227189718704956,"longitude":16.59724337395506},"aircraft_orientation":{"pitch":2.7,"roll":0.7,"yaw":-113.8,"compass":-113.80000305175781},"aircraft_velocity":{"velocity_x":0,"velocity_y":0,"velocity_z":0},"gimbal_orientation":{"pitch":0,"roll":0,"yaw":-122.5999984741211,"yaw_relative":0},"timestamp":"2023-09-06 15:58:58.999"}
{"client_id":"15357fc2","altitude":221.5,"gps":{"latitude":49.22718974498412,"longitude":16.59724339779168},"aircraft_orientation":{"pitch":2.7,"roll":0.7,"yaw":-113.8,"compass":-113.80000305175781},"aircraft_velocity":{"velocity_x":0,"velocity_y":0,"velocity_z":0},"gimbal_orientation":{"pitch":0,"roll":0,"yaw":-122.5999984741211,"yaw_relative":0},"timestamp":"2023-09-06 15:58:59.103"}
{"client_id":"15357fc2","altitude":221.5,"gps":{"latitude":49.22718984272968,"longitude":16.597243495736297},"aircraft_orientation":{"pitch":2.7,"roll":0.7,"yaw":-113.8,"compass":-113.80000305175781},"aircraft_velocity":{"velocity_x":0,"velocity_y":0,"velocity_z":0},"gimbal_orientation":{"pitch":0,"roll":0,"yaw":-122.5999984741211,"yaw_relative":0},"timestamp":"2023-09-06 15:58:59.204"}
{"client_id":"15357fc2","altitude":221.5,"gps":{"latitude":49.22718987574657,"longitude":16.597243528748795},"aircraft_orientation":{"pitch":2.7,"roll":0.7,"yaw":-113.8,"compass":-113.80000305175781},"aircraft_velocity":{"velocity_x":0,"velocity_y":0,"velocity_z":0},"gimbal_orientation":{"pitch":0,"roll":0,"yaw":-122.5999984741211,"yaw_relative":0},"timestamp":"2023-09-06 15:58:59.306"}
{"client_id":"15357fc2","altitude":221.5,"gps":{"latitude":49.227189815163904,"longitude":16.597243471315938},"aircraft_orientation":{"pitch":2.7,"roll":0.7,"yaw":-113.8,"compass":-113.80000305175781},"aircraft_velocity":{"velocity_x":0,"velocity_y":0,"velocity_z":0},"gimbal_orientation":{"pitch":0,"roll":0,"yaw":-122.5999984741211,"yaw_relative":0},"timestamp":"2023-09-06 15:58:59.407"}
{"client_id":"15357fc2","altitude":221.5,"gps":{"latitude":49.22718984119839,"longitude":16.597243494367948},"aircraft_orientation":{"pitch":2.7,"roll":0.7,"yaw":-113.8,"compass":-113.80000305175781},"aircraft_velocity":{"velocity_x":0,"velocity_y":0,"velocity_z":0},"gimbal_orientation":{"pitch":0,"roll":0,"yaw":-122.5999984741211,"yaw_relative":0},"timestamp":"2023-09-06 15:58:59.518"}
{"client_id":"15357fc2","altitude":221.5,"gps":{"latitude":49.22718997560703,"longitude":16.59724362590634},"aircraft_orientation":{"pitch":2.7,"roll":0.7,"yaw":-113.8,"compass":-113.80000305175781},"aircraft_velocity":{"velocity_x":0,"velocity_y":0,"velocity_z":0},"gimbal_orientation":{"pitch":0,"roll":0,"yaw":-122.5999984741211,"yaw_relative":0},"timestamp":"2023-09-06 15:58:59.630"}
{"client_id":"15357fc2","altitude":221.5,"gps":{"latitude":49.22719006318633,"longitude":16.59724356827672},"aircraft_orientation":{"pitch":2.7,"roll":0.7,"yaw":-113.8,"compass":-113.80000305175781},"aircraft_velocity":{"velocity_x":0,"velocity_y":0,"velocity_z":0},"gimbal_orientation":{"pitch":0,"roll":0,"yaw":-122.5999984741211,"yaw_relative":0},"timestamp":"2023-09-06 15:58:59.747"}
{"client_id":"15357fc2","altitude":221.5,"gps":{"latitude":49.22719010357298,"longitude":16.597243590275212},"aircraft_orientation":{"pitch":2.7,"roll":0.7,"yaw":-113.8,"compass":-113.80000305175781},"aircraft_velocity":{"velocity_x":0,"velocity_y":0,"velocity_z":0},"gimbal_orientation":{"pitch":0,"roll":0,"yaw":-122.5999984741211,"yaw_relative":0},"timestamp":"2023-09-06 15:58:59.862"}
{"client_id":"15357fc2","altitude":221.5,"gps":{"latitude":49.22719017901593,"longitude":16.597243541871475},"aircraft_orientation":{"pitch":2.7,"roll":0.7,"yaw":-113.8,"compass":-113.80000305175781},"aircraft_velocity":{"velocity_x":0,"velocity_y":0,"velocity_z":0},"gimbal_orientation":{"pitch":0,"roll":0,"yaw":-122.5999984741211,"yaw_relative":0},"timestamp":"2023-09-06 15:58:59.976"}
{"client_id":"15357fc2","altitude":221.5,"gps":{"latitude":49.22719022400613,"longitude":16.59724355645761},"aircraft_orientation":{"pitch":2.7,"roll":0.7,"yaw":-113.8,"compass":-113.80000305175781},"aircraft_velocity":{"velocity_x":0,"velocity_y":0,"velocity_z":0},"gimbal_orientation":{"pitch":0,"roll":0,"yaw":-122.5999984741211,"yaw_relative":0},"timestamp":"2023-09-06 15:59:00.092"}
{"client_id":"15357fc2","altitude":221.5,"gps":{"latitude":49.2271902915645,"longitude":16.59724352154878},"aircraft_orientation":{"pitch":2.7,"roll":0.7,"yaw":-113.8,"compass":-113.80000305175781},"aircraft_velocity":{"velocity_x":0,"velocity_y":0,"velocity_z":0},"gimbal_orientation":{"pitch":0,"roll":0,"yaw":-122.5999984741211,"yaw_relative":0},"timestamp":"2023-09-06 15:59:00.194"}
{"client_id":"15357fc2","altitude":221.5,"gps":{"latitude":49.22719034174423,"longitude":16.597243530371298},"aircraft_orientation":{"pitch":2.7,"roll":0.7,"yaw":-113.8,"compass":-113.80000305175781},"aircraft_velocity":{"velocity_x":0,"velocity_y":0,"velocity_z":0},"gimbal_orientation":{"pitch":0,"roll":0,"yaw":-122.5999984741211,"yaw_relative":0},"timestamp":"2023-09-06 15:59:00.296"}
{"client_id":"15357fc2","altitude":221.5,"gps":{"latitude":49.22719040321997,"longitude":16.59724350774807},"aircraft_orientation":{"pitch":2.7,"roll":0.7,"yaw":-113.8,"compass":-113.80000305175781},"aircraft_velocity":{"velocity_x":0,"velocity_y":0,"velocity_z":0},"gimbal_orientation":{"pitch":0,"roll":0,"yaw":-122.5999984741211,"yaw_relative":0},"timestamp":"2023-09-06 15:59:00.398"}
{"client_id":"15357fc2","altitude":221.5,"gps":{"latitude":49.22719045636219,"longitude":16.59724351197855},"aircraft_orientation":{"pitch":2.7,"roll":0.7,"yaw":-113.8,"compass":-113.80000305175781},"aircraft_velocity":{"velocity_x":0,"velocity_y":0,"velocity_z":0},"gimbal_orientation":{"pitch":0,"roll":0,"yaw":-122.5999984741211,"yaw_relative":-0.10000000149011612},"timestamp":"2023-09-06 15:59:00.500"}
{"client_id":"15357fc2","altitude":221.5,"gps":{"latitude":49.22719051191085,"longitude":16.597243495605937},"aircraft_orientation":{"pitch":2.7,"roll":0.7,"yaw":-113.8,"compass":-113.80000305175781},"aircraft_velocity":{"velocity_x":0,"velocity_y":0,"velocity_z":0},"gimbal_orientation":{"pitch":0,"roll":0,"yaw":-122.5999984741211,"yaw_relative":-0.10000000149011612},"timestamp":"2023-09-06 15:59:00.602"}
{"client_id":"15357fc2","altitude":221.5,"gps":{"latitude":49.227190567011085,"longitude":16.59724349656681},"aircraft_orientation":{"pitch":2.7,"roll":0.7,"yaw":-113.8,"compass":-113.80000305175781},"aircraft_velocity":{"velocity_x":0,"velocity_y":0,"velocity_z":0},"gimbal_orientation":{"pitch":0,"roll":0,"yaw":-122.5999984741211,"yaw_relative":-0.10000000149011612},"timestamp":"2023-09-06 15:59:00.704"}
{"client_id":"15357fc2","altitude":221.5,"gps":{"latitude":49.22719061552085,"longitude":16.597243488233755},"aircraft_orientation":{"pitch":2.7,"roll":0.7,"yaw":-113.8,"compass":-113.80000305175781},"aircraft_velocity":{"velocity_x":0,"velocity_y":0,"velocity_z":0},"gimbal_orientation":{"pitch":0,"roll":0,"yaw":-122.5999984741211,"yaw_relative":0},"timestamp":"2023-09-06 15:59:00.806"}
{"client_id":"15357fc2","altitude":221.5,"gps":{"latitude":49.227190671832204,"longitude":16.59724348745407},"aircraft_orientation":{"pitch":2.7,"roll":0.7,"yaw":-113.8,"compass":-113.80000305175781},"aircraft_velocity":{"velocity_x":0,"velocity_y":0,"velocity_z":0},"gimbal_orientation":{"pitch":0,"roll":0,"yaw":-122.5999984741211,"yaw_relative":0},"timestamp":"2023-09-06 15:59:00.911"}
{"client_id":"15357fc2","altitude":221.5,"gps":{"latitude":49.22719072162644,"longitude":16.597243631690457},"aircraft_orientation":{"pitch":2.7,"roll":0.7,"yaw":-113.8,"compass":-113.80000305175781},"aircraft_velocity":{"velocity_x":0,"velocity_y":0,"velocity_z":0},"gimbal_orientation":{"pitch":0,"roll":0,"yaw":-122.5999984741211,"yaw_relative":0},"timestamp":"2023-09-06 15:59:01.014"}
{"client_id":"15357fc2","altitude":221.5,"gps":{"latitude":49.22719077871442,"longitude":16.597243642263376},"aircraft_orientation":{"pitch":2.7,"roll":0.7,"yaw":-113.8,"compass":-113.80000305175781},"aircraft_velocity":{"velocity_x":0,"velocity_y":0,"velocity_z":0},"gimbal_orientation":{"pitch":0,"roll":0,"yaw":-122.5999984741211,"yaw_relative":0},"timestamp":"2023-09-06 15:59:01.120"}
{"client_id":"15357fc2","altitude":221.5,"gps":{"latitude":49.2271908183863,"longitude":16.59724361651566},"aircraft_orientation":{"pitch":2.7,"roll":0.7,"yaw":-113.8,"compass":-113.80000305175781},"aircraft_velocity":{"velocity_x":0,"velocity_y":0,"velocity_z":0},"gimbal_orientation":{"pitch":0,"roll":0,"yaw":-122.5999984741211,"yaw_relative":0},"timestamp":"2023-09-06 15:59:01.222"}
{"client_id":"15357fc2","altitude":221.5,"gps":{"latitude":49.22719091906315,"longitude":16.597243607457024},"aircraft_orientation":{"pitch":2.7,"roll":0.7,"yaw":-113.8,"compass":-113.80000305175781},"aircraft_velocity":{"velocity_x":0,"velocity_y":0,"velocity_z":0},"gimbal_orientation":{"pitch":0,"roll":0,"yaw":-122.5999984741211,"yaw_relative":-0.10000000149011612},"timestamp":"2023-09-06 15:59:01.329"}
{"client_id":"15357fc2","altitude":221.5,"gps":{"latitude":49.227190977200415,"longitude":16.59724361165717},"aircraft_orientation":{"pitch":2.7,"roll":0.7,"yaw":-113.8,"compass":-113.80000305175781},"aircraft_velocity":{"velocity_x":0,"velocity_y":0,"velocity_z":0},"gimbal_orientation":{"pitch":0,"roll":0,"yaw":-122.5999984741211,"yaw_relative":0},"timestamp":"2023-09-06 15:59:01.437"}
{"client_id":"15357fc2","altitude":221.5,"gps":{"latitude":49.22719101989982,"longitude":16.597243599411737},"aircraft_orientation":{"pitch":2.7,"roll":0.7,"yaw":-113.8,"compass":-113.80000305175781},"aircraft_velocity":{"velocity_x":0,"velocity_y":0,"velocity_z":0},"gimbal_orientation":{"pitch":0,"roll":0,"yaw":-122.5999984741211,"yaw_relative":0},"timestamp":"2023-09-06 15:59:01.539"}
{"client_id":"15357fc2","altitude":221.5,"gps":{"latitude":49.22719107693854,"longitude":16.597243600918638},"aircraft_orientation":{"pitch":2.7,"roll":0.7,"yaw":-113.8,"compass":-113.80000305175781},"aircraft_velocity":{"velocity_x":0,"velocity_y":0,"velocity_z":0},"gimbal_orientation":{"pitch":0,"roll":0,"yaw":-122.5999984741211,"yaw_relative":0},"timestamp":"2023-09-06 15:59:01.648"}
{"client_id":"15357fc2","altitude":221.5,"gps":{"latitude":49.22719111490938,"longitude":16.597243592850393},"aircraft_orientation":{"pitch":2.7,"roll":0.7,"yaw":-113.8,"compass":-113.80000305175781},"aircraft_velocity":{"velocity_x":0,"velocity_y":0,"velocity_z":0},"gimbal_orientation":{"pitch":0,"roll":0,"yaw":-122.5999984741211,"yaw_relative":0},"timestamp":"2023-09-06 15:59:01.749"}
{"client_id":"15357fc2","altitude":221.5,"gps":{"latitude":49.22719117035672,"longitude":16.597243592501133},"aircraft_orientation":{"pitch":2.7,"roll":0.7,"yaw":-113.8,"compass":-113.80000305175781},"aircraft_velocity":{"velocity_x":0,"velocity_y":0,"velocity_z":0},"gimbal_orientation":{"pitch":0,"roll":0,"yaw":-122.5999984741211,"yaw_relative":0},"timestamp":"2023-09-06 15:59:01.856"}
{"client_id":"15357fc2","altitude":221.5,"gps":{"latitude":49.227191210743364,"longitude":16.597243735402795},"aircraft_orientation":{"pitch":2.7,"roll":0.7,"yaw":-113.8,"compass":-113.80000305175781},"aircraft_velocity":{"velocity_x":0,"velocity_y":0,"velocity_z":0},"gimbal_orientation":{"pitch":0,"roll":0,"yaw":-122.5999984741211,"yaw_relative":0},"timestamp":"2023-09-06 15:59:01.958"}
{"client_id":"15357fc2","altitude":221.5,"gps":{"latitude":49.22719126553922,"longitude":16.59724374905346},"aircraft_orientation":{"pitch":2.7,"roll":0.7,"yaw":-113.8,"compass":-113.80000305175781},"aircraft_velocity":{"velocity_x":0,"velocity_y":0,"velocity_z":0},"gimbal_orientation":{"pitch":0,"roll":0,"yaw":-122.5999984741211,"yaw_relative":0},"timestamp":"2023-09-06 15:59:02.065"}
{"client_id":"15357fc2","altitude":221.5,"gps":{"latitude":49.227191456074635,"longitude":16.597243726157227},"aircraft_orientation":{"pitch":2.7,"roll":0.7,"yaw":-113.8,"compass":-113.80000305175781},"aircraft_velocity":{"velocity_x":0,"velocity_y":0,"velocity_z":0},"gimbal_orientation":{"pitch":0,"roll":0,"yaw":-122.5999984741211,"yaw_relative":0},"timestamp":"2023-09-06 15:59:02.167"}
{"client_id":"15357fc2","altitude":221.5,"gps":{"latitude":49.227191524661286,"longitude":16.597243734145945},"aircraft_orientation":{"pitch":2.7,"roll":0.7,"yaw":-113.8,"compass":-113.80000305175781},"aircraft_velocity":{"velocity_x":0,"velocity_y":0,"velocity_z":0},"gimbal_orientation":{"pitch":0,"roll":0,"yaw":-122.5999984741211,"yaw_relative":0},"timestamp":"2023-09-06 15:59:02.270"}
{"client_id":"15357fc2","altitude":221.5,"gps":{"latitude":49.22719154450887,"longitude":16.59724356621313},"aircraft_orientation":{"pitch":2.7,"roll":0.7,"yaw":-113.8,"compass":-113.80000305175781},"aircraft_velocity":{"velocity_x":0,"velocity_y":0,"velocity_z":0},"gimbal_orientation":{"pitch":0,"roll":0,"yaw":-122.5999984741211,"yaw_relative":0},"timestamp":"2023-09-06 15:59:02.372"}
{"client_id":"15357fc2","altitude":221.5,"gps":{"latitude":49.22719161000573,"longitude":16.59724355658059},"aircraft_orientation":{"pitch":2.7,"roll":0.7,"yaw":-113.8,"compass":-113.80000305175781},"aircraft_velocity":{"velocity_x":0,"velocity_y":0,"velocity_z":0},"gimbal_orientation":{"pitch":0,"roll":0,"yaw":-122.5999984741211,"yaw_relative":0},"timestamp":"2023-09-06 15:59:02.482"}
{"client_id":"15357fc2","altitude":221.5,"gps":{"latitude":49.2271916349987,"longitude":16.597243562540974},"aircraft_orientation":{"pitch":2.7,"roll":0.7,"yaw":-113.8,"compass":-113.80000305175781},"aircraft_velocity":{"velocity_x":0,"velocity_y":0,"velocity_z":0},"gimbal_orientation":{"pitch":0,"roll":0,"yaw":-122.5999984741211,"yaw_relative":0},"timestamp":"2023-09-06 15:59:02.585"}
{"client_id":"15357fc2","altitude":221.5,"gps":{"latitude":49.227191697405665,"longitude":16.597243552882198},"aircraft_orientation":{"pitch":2.7,"roll":0.7,"yaw":-113.8,"compass":-113.80000305175781},"aircraft_velocity":{"velocity_x":0,"velocity_y":0,"velocity_z":0},"gimbal_orientation":{"pitch":0,"roll":0,"yaw":-122.5999984741211,"yaw_relative":0},"timestamp":"2023-09-06 15:59:02.688"}
{"client_id":"15357fc2","altitude":221.5,"gps":{"latitude":49.227191727026515,"longitude":16.597243563080443},"aircraft_orientation":{"pitch":2.7,"roll":0.7,"yaw":-113.8,"compass":-113.80000305175781},"aircraft_velocity":{"velocity_x":0,"velocity_y":0,"velocity_z":0},"gimbal_orientation":{"pitch":0,"roll":0,"yaw":-122.5999984741211,"yaw_relative":0},"timestamp":"2023-09-06 15:59:02.791"}
{"client_id":"15357fc2","altitude":221.5,"gps":{"latitude":49.22719178697899,"longitude":16.59724355201069},"aircraft_orientation":{"pitch":2.7,"roll":0.7,"yaw":-113.8,"compass":-113.80000305175781},"aircraft_velocity":{"velocity_x":0,"velocity_y":0,"velocity_z":0},"gimbal_orientation":{"pitch":0,"roll":0,"yaw":-122.5999984741211,"yaw_relative":0},"timestamp":"2023-09-06 15:59:02.895"}
{"client_id":"15357fc2","altitude":221.5,"gps":{"latitude":49.22719196664139,"longitude":16.59724356408395},"aircraft_orientation":{"pitch":2.7,"roll":0.7,"yaw":-113.8,"compass":-113.80000305175781},"aircraft_velocity":{"velocity_x":0,"velocity_y":0,"velocity_z":0},"gimbal_orientation":{"pitch":0,"roll":0,"yaw":-122.5999984741211,"yaw_relative":0},"timestamp":"2023-09-06 15:59:02.997"}
{"client_id":"15357fc2","altitude":221.5,"gps":{"latitude":49.22719203892517,"longitude":16.597243556223134},"aircraft_orientation":{"pitch":2.7,"roll":0.7,"yaw":-113.8,"compass":-113.80000305175781},"aircraft_velocity":{"velocity_x":0,"velocity_y":0,"velocity_z":0},"gimbal_orientation":{"pitch":0,"roll":0,"yaw":-122.5999984741211,"yaw_relative":0},"timestamp":"2023-09-06 15:59:03.101"}
{"client_id":"15357fc2","altitude":221.5,"gps":{"latitude":49.2271922004651,"longitude":16.597243572046438},"aircraft_orientation":{"pitch":2.7,"roll":0.7,"yaw":-113.8,"compass":-113.80000305175781},"aircraft_velocity":{"velocity_x":0,"velocity_y":0,"velocity_z":0},"gimbal_orientation":{"pitch":0,"roll":0,"yaw":-122.5999984741211,"yaw_relative":0},"timestamp":"2023-09-06 15:59:03.205"}
{"client_id":"15357fc2","altitude":221.5,"gps":{"latitude":49.22719228239231,"longitude":16.597243565170267},"aircraft_orientation":{"pitch":2.7,"roll":0.7,"yaw":-113.8,"compass":-113.80000305175781},"aircraft_velocity":{"velocity_x":0,"velocity_y":0,"velocity_z":0},"gimbal_orientation":{"pitch":0,"roll":0,"yaw":-122.5999984741211,"yaw_relative":0},"timestamp":"2023-09-06 15:59:03.307"}
{"client_id":"15357fc2","altitude":221.5,"gps":{"latitude":49.22719227946297,"longitude":16.597243428757803},"aircraft_orientation":{"pitch":2.7,"roll":0.7,"yaw":-113.8,"compass":-113.80000305175781},"aircraft_velocity":{"velocity_x":0,"velocity_y":0,"velocity_z":0},"gimbal_orientation":{"pitch":0,"roll":0,"yaw":-122.5999984741211,"yaw_relative":0},"timestamp":"2023-09-06 15:59:03.411"}
{"client_id":"15357fc2","altitude":221.5,"gps":{"latitude":49.227192356404224,"longitude":16.59724340827687},"aircraft_orientation":{"pitch":2.7,"roll":0.7,"yaw":-113.8,"compass":-113.80000305175781},"aircraft_velocity":{"velocity_x":0,"velocity_y":0,"velocity_z":0},"gimbal_orientation":{"pitch":0,"roll":0,"yaw":-122.5999984741211,"yaw_relative":0},"timestamp":"2023-09-06 15:59:03.516"}
{"client_id":"15357fc2","altitude":221.5,"gps":{"latitude":49.227192369857626,"longitude":16.59724343641038},"aircraft_orientation":{"pitch":2.7,"roll":0.7,"yaw":-113.8,"compass":-113.80000305175781},"aircraft_velocity":{"velocity_x":0,"velocity_y":0,"velocity_z":0},"gimbal_orientation":{"pitch":0,"roll":0,"yaw":-122.5999984741211,"yaw_relative":0},"timestamp":"2023-09-06 15:59:03.626"}
{"client_id":"15357fc2","altitude":221.5,"gps":{"latitude":49.227192594476186,"longitude":16.59724344574285},"aircraft_orientation":{"pitch":2.7,"roll":0.7,"yaw":-113.8,"compass":-113.80000305175781},"aircraft_velocity":{"velocity_x":0,"velocity_y":0,"velocity_z":0},"gimbal_orientation":{"pitch":0,"roll":0,"yaw":-122.5999984741211,"yaw_relative":0},"timestamp":"2023-09-06 15:59:03.736"}
{"client_id":"15357fc2","altitude":221.5,"gps":{"latitude":49.22719267409932,"longitude":16.597243430806635},"aircraft_orientation":{"pitch":2.7,"roll":0.7,"yaw":-113.8,"compass":-113.80000305175781},"aircraft_velocity":{"velocity_x":0,"velocity_y":0,"velocity_z":0},"gimbal_orientation":{"pitch":0,"roll":0,"yaw":-122.5999984741211,"yaw_relative":0},"timestamp":"2023-09-06 15:59:03.849"}
{"client_id":"15357fc2","altitude":221.5,"gps":{"latitude":49.22719266975302,"longitude":16.59724345461538},"aircraft_orientation":{"pitch":2.7,"roll":0.7,"yaw":-113.8,"compass":-113.80000305175781},"aircraft_velocity":{"velocity_x":0,"velocity_y":0,"velocity_z":0},"gimbal_orientation":{"pitch":0,"roll":0,"yaw":-122.5999984741211,"yaw_relative":0},"timestamp":"2023-09-06 15:59:03.956"}
{"client_id":"15357fc2","altitude":221.5,"gps":{"latitude":49.227192743970534,"longitude":16.59724344399245},"aircraft_orientation":{"pitch":2.7,"roll":0.7,"yaw":-113.8,"compass":-113.80000305175781},"aircraft_velocity":{"velocity_x":0,"velocity_y":0,"velocity_z":0},"gimbal_orientation":{"pitch":0,"roll":0,"yaw":-122.5999984741211,"yaw_relative":0},"timestamp":"2023-09-06 15:59:04.058"}
{"client_id":"15357fc2","altitude":221.5,"gps":{"latitude":49.22719275064985,"longitude":16.597243464213484},"aircraft_orientation":{"pitch":2.7,"roll":0.7,"yaw":-113.8,"compass":-113.80000305175781},"aircraft_velocity":{"velocity_x":0,"velocity_y":0,"velocity_z":0},"gimbal_orientation":{"pitch":0,"roll":0,"yaw":-122.5999984741211,"yaw_relative":0},"timestamp":"2023-09-06 15:59:04.167"}
{"client_id":"15357fc2","altitude":221.5,"gps":{"latitude":49.227192817186435,"longitude":16.59724345726681},"aircraft_orientation":{"pitch":2.7,"roll":0.7,"yaw":-113.8,"compass":-113.80000305175781},"aircraft_velocity":{"velocity_x":0,"velocity_y":0,"velocity_z":0},"gimbal_orientation":{"pitch":0,"roll":0,"yaw":-122.5999984741211,"yaw_relative":0},"timestamp":"2023-09-06 15:59:04.269"}
{"client_id":"15357fc2","altitude":221.5,"gps":{"latitude":49.22719283391829,"longitude":16.59724332692869},"aircraft_orientation":{"pitch":2.7,"roll":0.7,"yaw":-113.8,"compass":-113.80000305175781},"aircraft_velocity":{"velocity_x":0,"velocity_y":0,"velocity_z":0},"gimbal_orientation":{"pitch":0,"roll":0,"yaw":-122.5999984741211,"yaw_relative":-0.10000000149011612},"timestamp":"2023-09-06 15:59:04.373"}
{"client_id":"15357fc2","altitude":221.5,"gps":{"latitude":49.227192895969175,"longitude":16.597243306278866},"aircraft_orientation":{"pitch":2.7,"roll":0.7,"yaw":-113.8,"compass":-113.80000305175781},"aircraft_velocity":{"velocity_x":0,"velocity_y":0,"velocity_z":0},"gimbal_orientation":{"pitch":0,"roll":0,"yaw":-122.5999984741211,"yaw_relative":0},"timestamp":"2023-09-06 15:59:04.475"}
{"client_id":"15357fc2","altitude":221.5,"gps":{"latitude":49.227192920169124,"longitude":16.597243339343837},"aircraft_orientation":{"pitch":2.7,"roll":0.7,"yaw":-113.8,"compass":-113.80000305175781},"aircraft_velocity":{"velocity_x":0,"velocity_y":0,"velocity_z":0},"gimbal_orientation":{"pitch":0,"roll":0,"yaw":-122.5999984741211,"yaw_relative":0},"timestamp":"2023-09-06 15:59:04.583"}
{"client_id":"15357fc2","altitude":221.5,"gps":{"latitude":49.227192977859694,"longitude":16.597243322357972},"aircraft_orientation":{"pitch":2.7,"roll":0.7,"yaw":-113.8,"compass":-113.80000305175781},"aircraft_velocity":{"velocity_x":0,"velocity_y":0,"velocity_z":0},"gimbal_orientation":{"pitch":0,"roll":0,"yaw":-122.5999984741211,"yaw_relative":0},"timestamp":"2023-09-06 15:59:04.694"}
{"client_id":"15357fc2","altitude":221.5,"gps":{"latitude":49.22719300827454,"longitude":16.59724335129248},"aircraft_orientation":{"pitch":2.7,"roll":0.7,"yaw":-113.8,"compass":-113.80000305175781},"aircraft_velocity":{"velocity_x":0,"velocity_y":0,"velocity_z":0},"gimbal_orientation":{"pitch":0,"roll":0,"yaw":-122.5999984741211,"yaw_relative":0},"timestamp":"2023-09-06 15:59:04.796"}
{"client_id":"15357fc2","altitude":221.5,"gps":{"latitude":49.2271930618603,"longitude":16.597243339456973},"aircraft_orientation":{"pitch":2.7,"roll":0.7,"yaw":-113.8,"compass":-113.80000305175781},"aircraft_velocity":{"velocity_x":0,"velocity_y":0,"velocity_z":0},"gimbal_orientation":{"pitch":0,"roll":0,"yaw":-122.5999984741211,"yaw_relative":0},"timestamp":"2023-09-06 15:59:04.899"}
{"client_id":"15357fc2","altitude":221.5,"gps":{"latitude":49.227193244983255,"longitude":16.597243364209383},"aircraft_orientation":{"pitch":2.7,"roll":0.7,"yaw":-113.8,"compass":-113.80000305175781},"aircraft_velocity":{"velocity_x":0,"velocity_y":0,"velocity_z":0},"gimbal_orientation":{"pitch":0,"roll":0,"yaw":-122.5999984741211,"yaw_relative":0},"timestamp":"2023-09-06 15:59:05.001"}
{"client_id":"15357fc2","altitude":221.5,"gps":{"latitude":49.22719331078371,"longitude":16.59724335539834},"aircraft_orientation":{"pitch":2.7,"roll":0.7,"yaw":-113.8,"compass":-113.80000305175781},"aircraft_velocity":{"velocity_x":0,"velocity_y":0,"velocity_z":0},"gimbal_orientation":{"pitch":0,"roll":0,"yaw":-122.5999984741211,"yaw_relative":0},"timestamp":"2023-09-06 15:59:05.105"}
{"client_id":"15357fc2","altitude":221.5,"gps":{"latitude":49.22719333208448,"longitude":16.597243376385947},"aircraft_orientation":{"pitch":2.7,"roll":0.7,"yaw":-113.8,"compass":-113.80000305175781},"aircraft_velocity":{"velocity_x":0,"velocity_y":0,"velocity_z":0},"gimbal_orientation":{"pitch":0,"roll":0,"yaw":-122.5999984741211,"yaw_relative":-0.10000000149011612},"timestamp":"2023-09-06 15:59:05.207"}
{"client_id":"15357fc2","altitude":221.5,"gps":{"latitude":49.22719339413213,"longitude":16.59724336981968},"aircraft_orientation":{"pitch":2.7,"roll":0.7,"yaw":-113.8,"compass":-113.80000305175781},"aircraft_velocity":{"velocity_x":0,"velocity_y":0,"velocity_z":0},"gimbal_orientation":{"pitch":0,"roll":0,"yaw":-122.5999984741211,"yaw_relative":0},"timestamp":"2023-09-06 15:59:05.310"}
{"client_id":"15357fc2","altitude":221.5,"gps":{"latitude":49.22719342051628,"longitude":16.59724323380649},"aircraft_orientation":{"pitch":2.7,"roll":0.7,"yaw":-113.8,"compass":-113.80000305175781},"aircraft_velocity":{"velocity_x":0,"velocity_y":0,"velocity_z":0},"gimbal_orientation":{"pitch":0,"roll":0,"yaw":-122.5999984741211,"yaw_relative":0},"timestamp":"2023-09-06 15:59:05.414"}
{"client_id":"15357fc2","altitude":221.5,"gps":{"latitude":49.227193478112305,"longitude":16.597243213874865},"aircraft_orientation":{"pitch":2.7,"roll":0.7,"yaw":-113.8,"compass":-113.80000305175781},"aircraft_velocity":{"velocity_x":0,"velocity_y":0,"velocity_z":0},"gimbal_orientation":{"pitch":0,"roll":0,"yaw":-122.5999984741211,"yaw_relative":0},"timestamp":"2023-09-06 15:59:05.518"}
{"client_id":"15357fc2","altitude":221.5,"gps":{"latitude":49.22719365731333,"longitude":16.59724324398506},"aircraft_orientation":{"pitch":2.7,"roll":0.7,"yaw":-113.8,"compass":-113.80000305175781},"aircraft_velocity":{"velocity_x":0,"velocity_y":0,"velocity_z":0},"gimbal_orientation":{"pitch":0,"roll":0,"yaw":-122.5999984741211,"yaw_relative":0},"timestamp":"2023-09-06 15:59:05.620"}
{"client_id":"15357fc2","altitude":221.5,"gps":{"latitude":49.22719372694876,"longitude":16.59724322948009},"aircraft_orientation":{"pitch":2.7,"roll":0.7,"yaw":-113.8,"compass":-113.80000305175781},"aircraft_velocity":{"velocity_x":0,"velocity_y":0,"velocity_z":0},"gimbal_orientation":{"pitch":0,"roll":0,"yaw":-122.5999984741211,"yaw_relative":0},"timestamp":"2023-09-06 15:59:05.723"}
{"client_id":"15357fc2","altitude":221.5,"gps":{"latitude":49.22719374245536,"longitude":16.597243257153654},"aircraft_orientation":{"pitch":2.7,"roll":0.7,"yaw":-113.8,"compass":-113.80000305175781},"aircraft_velocity":{"velocity_x":0,"velocity_y":0,"velocity_z":0},"gimbal_orientation":{"pitch":0,"roll":0,"yaw":-122.5999984741211,"yaw_relative":0},"timestamp":"2023-09-06 15:59:05.826"}
{"client_id":"15357fc2","altitude":221.5,"gps":{"latitude":49.22719382736693,"longitude":16.597243266906716},"aircraft_orientation":{"pitch":2.7,"roll":0.7,"yaw":-113.8,"compass":-113.80000305175781},"aircraft_velocity":{"velocity_x":0,"velocity_y":0,"velocity_z":0},"gimbal_orientation":{"pitch":0,"roll":0,"yaw":-122.5999984741211,"yaw_relative":0},"timestamp":"2023-09-06 15:59:05.928"}
{"client_id":"15357fc2","altitude":221.5,"gps":{"latitude":49.227193888165175,"longitude":16.597243260169922},"aircraft_orientation":{"pitch":2.7,"roll":0.7,"yaw":-113.8,"compass":-113.80000305175781},"aircraft_velocity":{"velocity_x":0,"velocity_y":0,"velocity_z":0},"gimbal_orientation":{"pitch":0,"roll":0,"yaw":-122.5999984741211,"yaw_relative":0},"timestamp":"2023-09-06 15:59:06.030"}
{"client_id":"15357fc2","altitude":221.5,"gps":{"latitude":49.227193921751066,"longitude":16.59724327963177},"aircraft_orientation":{"pitch":2.7,"roll":0.7,"yaw":-113.8,"compass":-113.80000305175781},"aircraft_velocity":{"velocity_x":0,"velocity_y":0,"velocity_z":0},"gimbal_orientation":{"pitch":0,"roll":0,"yaw":-122.5999984741211,"yaw_relative":0},"timestamp":"2023-09-06 15:59:06.137"}
{"client_id":"15357fc2","altitude":221.5,"gps":{"latitude":49.227193979095986,"longitude":16.597243274945445},"aircraft_orientation":{"pitch":2.7,"roll":0.7,"yaw":-113.8,"compass":-113.80000305175781},"aircraft_velocity":{"velocity_x":0,"velocity_y":0,"velocity_z":0},"gimbal_orientation":{"pitch":0,"roll":0,"yaw":-122.5999984741211,"yaw_relative":0},"timestamp":"2023-09-06 15:59:06.247"}
{"client_id":"15357fc2","altitude":221.5,"gps":{"latitude":49.22719415561334,"longitude":16.59724328702117},"aircraft_orientation":{"pitch":2.7,"roll":0.7,"yaw":-113.8,"compass":-113.80000305175781},"aircraft_velocity":{"velocity_x":0,"velocity_y":0,"velocity_z":0},"gimbal_orientation":{"pitch":0,"roll":0,"yaw":-122.5999984741211,"yaw_relative":0},"timestamp":"2023-09-06 15:59:06.351"}
{"client_id":"15357fc2","altitude":221.5,"gps":{"latitude":49.227194223674736,"longitude":16.597243283922914},"aircraft_orientation":{"pitch":2.7,"roll":0.7,"yaw":-113.8,"compass":-113.80000305175781},"aircraft_velocity":{"velocity_x":0,"velocity_y":0,"velocity_z":0},"gimbal_orientation":{"pitch":0,"roll":0,"yaw":-122.5999984741211,"yaw_relative":0},"timestamp":"2023-09-06 15:59:06.455"}
{"client_id":"15357fc2","altitude":221.5,"gps":{"latitude":49.22719424061197,"longitude":16.59724314253144},"aircraft_orientation":{"pitch":2.7,"roll":0.7,"yaw":-113.8,"compass":-113.80000305175781},"aircraft_velocity":{"velocity_x":0,"velocity_y":0,"velocity_z":0},"gimbal_orientation":{"pitch":0,"roll":0,"yaw":-122.5999984741211,"yaw_relative":0},"timestamp":"2023-09-06 15:59:06.557"}
{"client_id":"15357fc2","altitude":221.5,"gps":{"latitude":49.22719430298126,"longitude":16.59724312750996},"aircraft_orientation":{"pitch":2.7,"roll":0.7,"yaw":-113.9,"compass":-113.9000015258789},"aircraft_velocity":{"velocity_x":0,"velocity_y":0,"velocity_z":0},"gimbal_orientation":{"pitch":0,"roll":0,"yaw":-122.5999984741211,"yaw_relative":0},"timestamp":"2023-09-06 15:59:06.664"}
{"client_id":"15357fc2","altitude":221.5,"gps":{"latitude":49.22719432581688,"longitude":16.59724315485722},"aircraft_orientation":{"pitch":2.7,"roll":0.7,"yaw":-113.9,"compass":-113.9000015258789},"aircraft_velocity":{"velocity_x":0,"velocity_y":0,"velocity_z":0},"gimbal_orientation":{"pitch":0,"roll":0,"yaw":-122.5999984741211,"yaw_relative":0},"timestamp":"2023-09-06 15:59:06.767"}
{"client_id":"15357fc2","altitude":221.5,"gps":{"latitude":49.22719438589171,"longitude":16.597243141680426},"aircraft_orientation":{"pitch":2.7,"roll":0.7,"yaw":-113.9,"compass":-113.9000015258789},"aircraft_velocity":{"velocity_x":0,"velocity_y":0,"velocity_z":0},"gimbal_orientation":{"pitch":0,"roll":0,"yaw":-122.5999984741211,"yaw_relative":0},"timestamp":"2023-09-06 15:59:06.871"}
{"client_id":"15357fc2","altitude":221.5,"gps":{"latitude":49.22719456120984,"longitude":16.5972431633108},"aircraft_orientation":{"pitch":2.7,"roll":0.7,"yaw":-113.9,"compass":-113.9000015258789},"aircraft_velocity":{"velocity_x":0,"velocity_y":0,"velocity_z":0},"gimbal_orientation":{"pitch":0,"roll":0,"yaw":-122.5999984741211,"yaw_relative":0},"timestamp":"2023-09-06 15:59:06.973"}
{"client_id":"15357fc2","altitude":221.5,"gps":{"latitude":49.22719463237867,"longitude":16.597243155003977},"aircraft_orientation":{"pitch":2.7,"roll":0.7,"yaw":-113.9,"compass":-113.9000015258789},"aircraft_velocity":{"velocity_x":0,"velocity_y":0,"velocity_z":0},"gimbal_orientation":{"pitch":0,"roll":0,"yaw":-122.5999984741211,"yaw_relative":0},"timestamp":"2023-09-06 15:59:07.074"}
{"client_id":"15357fc2","altitude":221.5,"gps":{"latitude":49.2271946450835,"longitude":16.59724317335983},"aircraft_orientation":{"pitch":2.7,"roll":0.7,"yaw":-113.9,"compass":-113.9000015258789},"aircraft_velocity":{"velocity_x":0,"velocity_y":0,"velocity_z":0},"gimbal_orientation":{"pitch":0,"roll":0,"yaw":-122.5999984741211,"yaw_relative":0},"timestamp":"2023-09-06 15:59:07.176"}
{"client_id":"15357fc2","altitude":221.5,"gps":{"latitude":49.227194709781934,"longitude":16.597243166733715},"aircraft_orientation":{"pitch":2.7,"roll":0.7,"yaw":-113.9,"compass":-113.9000015258789},"aircraft_velocity":{"velocity_x":0,"velocity_y":0,"velocity_z":0},"gimbal_orientation":{"pitch":0,"roll":0,"yaw":-122.5999984741211,"yaw_relative":0},"timestamp":"2023-09-06 15:59:07.291"}
{"client_id":"15357fc2","altitude":221.5,"gps":{"latitude":49.22719487584401,"longitude":16.597243180966494},"aircraft_orientation":{"pitch":2.7,"roll":0.7,"yaw":-113.9,"compass":-113.9000015258789},"aircraft_velocity":{"velocity_x":0,"velocity_y":0,"velocity_z":0},"gimbal_orientation":{"pitch":0,"roll":0,"yaw":-122.5999984741211,"yaw_relative":0},"timestamp":"2023-09-06 15:59:07.402"}
{"client_id":"15357fc2","altitude":221.5,"gps":{"latitude":49.22719495147544,"longitude":16.597243177711647},"aircraft_orientation":{"pitch":2.7,"roll":0.7,"yaw":-113.9,"compass":-113.9000015258789},"aircraft_velocity":{"velocity_x":0,"velocity_y":0,"velocity_z":0},"gimbal_orientation":{"pitch":0,"roll":0,"yaw":-122.5999984741211,"yaw_relative":0},"timestamp":"2023-09-06 15:59:07.507"}
{"client_id":"15357fc2","altitude":221.5,"gps":{"latitude":49.22719495644801,"longitude":16.59724318880518},"aircraft_orientation":{"pitch":2.7,"roll":0.7,"yaw":-113.9,"compass":-113.9000015258789},"aircraft_velocity":{"velocity_x":0,"velocity_y":0,"velocity_z":0},"gimbal_orientation":{"pitch":0,"roll":0,"yaw":-122.5999984741211,"yaw_relative":0},"timestamp":"2023-09-06 15:59:07.609"}
{"client_id":"15357fc2","altitude":221.5,"gps":{"latitude":49.22719502503398,"longitude":16.59724318863957},"aircraft_orientation":{"pitch":2.7,"roll":0.7,"yaw":-113.9,"compass":-113.9000015258789},"aircraft_velocity":{"velocity_x":0,"velocity_y":0,"velocity_z":0},"gimbal_orientation":{"pitch":0,"roll":0,"yaw":-122.5999984741211,"yaw_relative":0},"timestamp":"2023-09-06 15:59:07.710"}
{"client_id":"15357fc2","altitude":221.5,"gps":{"latitude":49.22719503946433,"longitude":16.597243050602142},"aircraft_orientation":{"pitch":2.7,"roll":0.7,"yaw":-113.9,"compass":-113.9000015258789},"aircraft_velocity":{"velocity_x":0,"velocity_y":0,"velocity_z":0},"gimbal_orientation":{"pitch":0,"roll":0,"yaw":-122.5999984741211,"yaw_relative":0},"timestamp":"2023-09-06 15:59:07.813"}
{"client_id":"15357fc2","altitude":221.5,"gps":{"latitude":49.22719510348544,"longitude":16.597243038484606},"aircraft_orientation":{"pitch":2.7,"roll":0.7,"yaw":-113.9,"compass":-113.9000015258789},"aircraft_velocity":{"velocity_x":0,"velocity_y":0,"velocity_z":0},"gimbal_orientation":{"pitch":0,"roll":0,"yaw":-122.5999984741211,"yaw_relative":0},"timestamp":"2023-09-06 15:59:07.916"}
{"client_id":"15357fc2","altitude":221.5,"gps":{"latitude":49.22719512729392,"longitude":16.5972430624606},"aircraft_orientation":{"pitch":2.7,"roll":0.7,"yaw":-113.9,"compass":-113.9000015258789},"aircraft_velocity":{"velocity_x":0,"velocity_y":0,"velocity_z":0},"gimbal_orientation":{"pitch":0,"roll":0,"yaw":-122.69999694824219,"yaw_relative":0},"timestamp":"2023-09-06 15:59:08.018"}
{"client_id":"15357fc2","altitude":221.5,"gps":{"latitude":49.22719518716542,"longitude":16.597243052050832},"aircraft_orientation":{"pitch":2.7,"roll":0.7,"yaw":-113.9,"compass":-113.9000015258789},"aircraft_velocity":{"velocity_x":0,"velocity_y":0,"velocity_z":0},"gimbal_orientation":{"pitch":0,"roll":0,"yaw":-122.69999694824219,"yaw_relative":0},"timestamp":"2023-09-06 15:59:08.126"}
{"client_id":"15357fc2","altitude":221.5,"gps":{"latitude":49.22719521608728,"longitude":16.597243068302102},"aircraft_orientation":{"pitch":2.7,"roll":0.7,"yaw":-113.9,"compass":-113.9000015258789},"aircraft_velocity":{"velocity_x":0,"velocity_y":0,"velocity_z":0},"gimbal_orientation":{"pitch":0,"roll":0,"yaw":-122.69999694824219,"yaw_relative":0},"timestamp":"2023-09-06 15:59:08.236"}
{"client_id":"15357fc2","altitude":221.5,"gps":{"latitude":49.22719545224736,"longitude":16.597243074710953},"aircraft_orientation":{"pitch":2.7,"roll":0.7,"yaw":-113.9,"compass":-113.9000015258789},"aircraft_velocity":{"velocity_x":0,"velocity_y":0,"velocity_z":0},"gimbal_orientation":{"pitch":0,"roll":0,"yaw":-122.69999694824219,"yaw_relative":0},"timestamp":"2023-09-06 15:59:08.341"}
{"client_id":"15357fc2","altitude":221.5,"gps":{"latitude":49.227195519669465,"longitude":16.597243069004726},"aircraft_orientation":{"pitch":2.7,"roll":0.7,"yaw":-113.9,"compass":-113.9000015258789},"aircraft_velocity":{"velocity_x":0,"velocity_y":0,"velocity_z":0},"gimbal_orientation":{"pitch":0,"roll":0,"yaw":-122.69999694824219,"yaw_relative":0},"timestamp":"2023-09-06 15:59:08.445"}
{"client_id":"15357fc2","altitude":221.5,"gps":{"latitude":49.22719553756157,"longitude":16.597243079890834},"aircraft_orientation":{"pitch":2.7,"roll":0.7,"yaw":-113.9,"compass":-113.9000015258789},"aircraft_velocity":{"velocity_x":0,"velocity_y":0,"velocity_z":0},"gimbal_orientation":{"pitch":0,"roll":0,"yaw":-122.69999694824219,"yaw_relative":0},"timestamp":"2023-09-06 15:59:08.547"}
{"client_id":"15357fc2","altitude":221.5,"gps":{"latitude":49.22719553756157,"longitude":16.597243079890834},"aircraft_orientation":{"pitch":2.7,"roll":0.7,"yaw":-113.9,"compass":-113.9000015258789},"aircraft_velocity":{"velocity_x":0,"velocity_y":0,"velocity_z":0},"gimbal_orientation":{"pitch":0,"roll":0,"yaw":-122.69999694824219,"yaw_relative":0},"timestamp":"2023-09-06 15:59:08.654"}
{"client_id":"15357fc2","altitude":221.5,"gps":{"latitude":49.22719577572397,"longitude":16.597243081824878},"aircraft_orientation":{"pitch":2.7,"roll":0.7,"yaw":-113.9,"compass":-113.9000015258789},"aircraft_velocity":{"velocity_x":0,"velocity_y":0,"velocity_z":0},"gimbal_orientation":{"pitch":0,"roll":0,"yaw":-122.69999694824219,"yaw_relative":0},"timestamp":"2023-09-06 15:59:08.757"}
{"client_id":"15357fc2","altitude":221.5,"gps":{"latitude":49.22719577572397,"longitude":16.597243081824878},"aircraft_orientation":{"pitch":2.7,"roll":0.7,"yaw":-113.9,"compass":-113.9000015258789},"aircraft_velocity":{"velocity_x":0,"velocity_y":0,"velocity_z":0},"gimbal_orientation":{"pitch":0,"roll":0,"yaw":-122.69999694824219,"yaw_relative":0},"timestamp":"2023-09-06 15:59:08.861"}
{"client_id":"15357fc2","altitude":221.5,"gps":{"latitude":49.22719585108849,"longitude":16.59724308906097},"aircraft_orientation":{"pitch":2.7,"roll":0.7,"yaw":-113.9,"compass":-113.9000015258789},"aircraft_velocity":{"velocity_x":0,"velocity_y":0,"velocity_z":0},"gimbal_orientation":{"pitch":0,"roll":0,"yaw":-122.69999694824219,"yaw_relative":0},"timestamp":"2023-09-06 15:59:08.964"}
{"client_id":"15357fc2","altitude":221.5,"gps":{"latitude":49.22719591920263,"longitude":16.59724308856086},"aircraft_orientation":{"pitch":2.7,"roll":0.7,"yaw":-113.9,"compass":-113.9000015258789},"aircraft_velocity":{"velocity_x":0,"velocity_y":0,"velocity_z":0},"gimbal_orientation":{"pitch":0,"roll":0,"yaw":-122.69999694824219,"yaw_relative":0},"timestamp":"2023-09-06 15:59:09.065"}
{"client_id":"15357fc2","altitude":221.5,"gps":{"latitude":49.227195938062756,"longitude":16.597243094682753},"aircraft_orientation":{"pitch":2.7,"roll":0.7,"yaw":-113.9,"compass":-113.9000015258789},"aircraft_velocity":{"velocity_x":0,"velocity_y":0,"velocity_z":0},"gimbal_orientation":{"pitch":0,"roll":0,"yaw":-122.69999694824219,"yaw_relative":0},"timestamp":"2023-09-06 15:59:09.167"}
{"client_id":"15357fc2","altitude":221.5,"gps":{"latitude":49.227195938062756,"longitude":16.597243094682753},"aircraft_orientation":{"pitch":2.7,"roll":0.7,"yaw":-113.9,"compass":-113.9000015258789},"aircraft_velocity":{"velocity_x":0,"velocity_y":0,"velocity_z":0},"gimbal_orientation":{"pitch":0,"roll":0,"yaw":-122.69999694824219,"yaw_relative":0},"timestamp":"2023-09-06 15:59:09.270"}
{"client_id":"15357fc2","altitude":221.5,"gps":{"latitude":49.2271961720564,"longitude":16.597242950884986},"aircraft_orientation":{"pitch":2.7,"roll":0.7,"yaw":-113.9,"compass":-113.9000015258789},"aircraft_velocity":{"velocity_x":0,"velocity_y":0,"velocity_z":0},"gimbal_orientation":{"pitch":0,"roll":0,"yaw":-122.69999694824219,"yaw_relative":0},"timestamp":"2023-09-06 15:59:09.373"}
{"client_id":"15357fc2","altitude":221.5,"gps":{"latitude":49.2271961720564,"longitude":16.597242950884986},"aircraft_orientation":{"pitch":2.7,"roll":0.7,"yaw":-113.9,"compass":-113.9000015258789},"aircraft_velocity":{"velocity_x":0,"velocity_y":0,"velocity_z":0},"gimbal_orientation":{"pitch":0,"roll":0,"yaw":-122.69999694824219,"yaw_relative":0},"timestamp":"2023-09-06 15:59:09.474"}
{"client_id":"15357fc2","altitude":221.5,"gps":{"latitude":49.22719639872578,"longitude":16.597242959923946},"aircraft_orientation":{"pitch":2.7,"roll":0.7,"yaw":-113.9,"compass":-113.9000015258789},"aircraft_velocity":{"velocity_x":0,"velocity_y":0,"velocity_z":0},"gimbal_orientation":{"pitch":0,"roll":0,"yaw":-122.69999694824219,"yaw_relative":0},"timestamp":"2023-09-06 15:59:09.578"}
{"client_id":"15357fc2","altitude":221.5,"gps":{"latitude":49.227196480380655,"longitude":16.59724294991755},"aircraft_orientation":{"pitch":2.7,"roll":0.7,"yaw":-113.9,"compass":-113.9000015258789},"aircraft_velocity":{"velocity_x":0,"velocity_y":0,"velocity_z":0},"gimbal_orientation":{"pitch":0,"roll":0,"yaw":-122.69999694824219,"yaw_relative":0},"timestamp":"2023-09-06 15:59:09.687"}
{"client_id":"15357fc2","altitude":221.5,"gps":{"latitude":49.22719632837573,"longitude":16.59724311518664},"aircraft_orientation":{"pitch":2.7,"roll":0.7,"yaw":-113.9,"compass":-113.9000015258789},"aircraft_velocity":{"velocity_x":0,"velocity_y":0,"velocity_z":0},"gimbal_orientation":{"pitch":0,"roll":0,"yaw":-122.69999694824219,"yaw_relative":0},"timestamp":"2023-09-06 15:59:09.796"}
{"client_id":"15357fc2","altitude":221.5,"gps":{"latitude":49.227196388421106,"longitude":16.597243121718467},"aircraft_orientation":{"pitch":2.7,"roll":0.7,"yaw":-113.9,"compass":-113.9000015258789},"aircraft_velocity":{"velocity_x":0,"velocity_y":0,"velocity_z":0},"gimbal_orientation":{"pitch":0,"roll":0,"yaw":-122.69999694824219,"yaw_relative":-0.10000000149011612},"timestamp":"2023-09-06 15:59:09.906"}
{"client_id":"15357fc2","altitude":221.5,"gps":{"latitude":49.22719641584098,"longitude":16.597243114555344},"aircraft_orientation":{"pitch":2.7,"roll":0.7,"yaw":-113.9,"compass":-113.9000015258789},"aircraft_velocity":{"velocity_x":0,"velocity_y":0,"velocity_z":0},"gimbal_orientation":{"pitch":0,"roll":0,"yaw":-122.69999694824219,"yaw_relative":-0.10000000149011612},"timestamp":"2023-09-06 15:59:10.017"}
{"client_id":"15357fc2","altitude":221.5,"gps":{"latitude":49.22719647213414,"longitude":16.59724311987624},"aircraft_orientation":{"pitch":2.7,"roll":0.7,"yaw":-113.9,"compass":-113.9000015258789},"aircraft_velocity":{"velocity_x":0,"velocity_y":0,"velocity_z":0},"gimbal_orientation":{"pitch":0,"roll":0,"yaw":-122.69999694824219,"yaw_relative":0},"timestamp":"2023-09-06 15:59:10.127"}
{"client_id":"15357fc2","altitude":221.5,"gps":{"latitude":49.22719671831017,"longitude":16.597243120810884},"aircraft_orientation":{"pitch":2.7,"roll":0.7,"yaw":-113.9,"compass":-113.9000015258789},"aircraft_velocity":{"velocity_x":0,"velocity_y":0,"velocity_z":0},"gimbal_orientation":{"pitch":0,"roll":0,"yaw":-122.69999694824219,"yaw_relative":0},"timestamp":"2023-09-06 15:59:10.236"}
{"client_id":"15357fc2","altitude":221.5,"gps":{"latitude":49.22719688166973,"longitude":16.597243114339722},"aircraft_orientation":{"pitch":2.7,"roll":0.7,"yaw":-113.9,"compass":-113.9000015258789},"aircraft_velocity":{"velocity_x":0,"velocity_y":0,"velocity_z":0},"gimbal_orientation":{"pitch":0,"roll":0,"yaw":-122.69999694824219,"yaw_relative":0},"timestamp":"2023-09-06 15:59:10.348"}
{"client_id":"15357fc2","altitude":221.5,"gps":{"latitude":49.227196957294446,"longitude":16.597243120090223},"aircraft_orientation":{"pitch":2.7,"roll":0.7,"yaw":-113.9,"compass":-113.9000015258789},"aircraft_velocity":{"velocity_x":0,"velocity_y":0,"velocity_z":0},"gimbal_orientation":{"pitch":0,"roll":0,"yaw":-122.69999694824219,"yaw_relative":0},"timestamp":"2023-09-06 15:59:10.458"}
{"client_id":"15357fc2","altitude":221.5,"gps":{"latitude":49.22719695976889,"longitude":16.597242962826254},"aircraft_orientation":{"pitch":2.7,"roll":0.7,"yaw":-113.9,"compass":-113.9000015258789},"aircraft_velocity":{"velocity_x":0,"velocity_y":0,"velocity_z":0},"gimbal_orientation":{"pitch":0,"roll":0,"yaw":-122.69999694824219,"yaw_relative":0},"timestamp":"2023-09-06 15:59:10.566"}
{"client_id":"15357fc2","altitude":221.5,"gps":{"latitude":49.22719702881572,"longitude":16.597242954713735},"aircraft_orientation":{"pitch":2.7,"roll":0.7,"yaw":-113.9,"compass":-113.9000015258789},"aircraft_velocity":{"velocity_x":0,"velocity_y":0,"velocity_z":0},"gimbal_orientation":{"pitch":0,"roll":0,"yaw":-122.69999694824219,"yaw_relative":0},"timestamp":"2023-09-06 15:59:10.676"}
{"client_id":"15357fc2","altitude":221.5,"gps":{"latitude":49.22719718792405,"longitude":16.59724297000331},"aircraft_orientation":{"pitch":2.7,"roll":0.7,"yaw":-113.9,"compass":-113.9000015258789},"aircraft_velocity":{"velocity_x":0,"velocity_y":0,"velocity_z":0},"gimbal_orientation":{"pitch":0,"roll":0,"yaw":-122.69999694824219,"yaw_relative":0},"timestamp":"2023-09-06 15:59:10.786"}
{"client_id":"15357fc2","altitude":221.5,"gps":{"latitude":49.227197267440204,"longitude":16.59724296355101},"aircraft_orientation":{"pitch":2.7,"roll":0.7,"yaw":-113.9,"compass":-113.9000015258789},"aircraft_velocity":{"velocity_x":0,"velocity_y":0,"velocity_z":0},"gimbal_orientation":{"pitch":0,"roll":0,"yaw":-122.69999694824219,"yaw_relative":0},"timestamp":"2023-09-06 15:59:10.897"}
{"client_id":"15357fc2","altitude":221.5,"gps":{"latitude":49.227197414070865,"longitude":16.597242975780045},"aircraft_orientation":{"pitch":2.7,"roll":0.7,"yaw":-113.9,"compass":-113.9000015258789},"aircraft_velocity":{"velocity_x":0,"velocity_y":0,"velocity_z":0},"gimbal_orientation":{"pitch":0,"roll":0,"yaw":-122.69999694824219,"yaw_relative":0},"timestamp":"2023-09-06 15:59:11.005"}
{"client_id":"15357fc2","altitude":221.5,"gps":{"latitude":49.227197501505856,"longitude":16.597242969818026},"aircraft_orientation":{"pitch":2.7,"roll":0.7,"yaw":-113.9,"compass":-113.9000015258789},"aircraft_velocity":{"velocity_x":0,"velocity_y":0,"velocity_z":0},"gimbal_orientation":{"pitch":0,"roll":0,"yaw":-122.69999694824219,"yaw_relative":0},"timestamp":"2023-09-06 15:59:11.108"}
{"client_id":"15357fc2","altitude":221.5,"gps":{"latitude":49.227197488286365,"longitude":16.597242831781415},"aircraft_orientation":{"pitch":2.7,"roll":0.7,"yaw":-113.9,"compass":-113.9000015258789},"aircraft_velocity":{"velocity_x":0,"velocity_y":0,"velocity_z":0},"gimbal_orientation":{"pitch":0,"roll":0,"yaw":-122.69999694824219,"yaw_relative":0},"timestamp":"2023-09-06 15:59:11.216"}
{"client_id":"15357fc2","altitude":221.5,"gps":{"latitude":49.22719756788712,"longitude":16.597242814672573},"aircraft_orientation":{"pitch":2.7,"roll":0.7,"yaw":-113.9,"compass":-113.9000015258789},"aircraft_velocity":{"velocity_x":0,"velocity_y":0,"velocity_z":0},"gimbal_orientation":{"pitch":0,"roll":0,"yaw":-122.69999694824219,"yaw_relative":0},"timestamp":"2023-09-06 15:59:11.327"}
{"client_id":"15357fc2","altitude":221.5,"gps":{"latitude":49.227197645372144,"longitude":16.59724282986786},"aircraft_orientation":{"pitch":2.7,"roll":0.7,"yaw":-113.9,"compass":-113.9000015258789},"aircraft_velocity":{"velocity_x":0,"velocity_y":0,"velocity_z":0},"gimbal_orientation":{"pitch":0,"roll":0,"yaw":-122.69999694824219,"yaw_relative":0},"timestamp":"2023-09-06 15:59:11.436"}
{"client_id":"15357fc2","altitude":221.5,"gps":{"latitude":49.22719779425612,"longitude":16.597242855316328},"aircraft_orientation":{"pitch":2.7,"roll":0.7,"yaw":-113.9,"compass":-113.9000015258789},"aircraft_velocity":{"velocity_x":0,"velocity_y":0,"velocity_z":0},"gimbal_orientation":{"pitch":0,"roll":0,"yaw":-122.69999694824219,"yaw_relative":0},"timestamp":"2023-09-06 15:59:11.547"}
{"client_id":"15357fc2","altitude":221.5,"gps":{"latitude":49.227197875410646,"longitude":16.59724284348984},"aircraft_orientation":{"pitch":2.7,"roll":0.7,"yaw":-113.9,"compass":-113.9000015258789},"aircraft_velocity":{"velocity_x":0,"velocity_y":0,"velocity_z":0},"gimbal_orientation":{"pitch":0,"roll":0,"yaw":-122.69999694824219,"yaw_relative":0},"timestamp":"2023-09-06 15:59:11.657"}
{"client_id":"15357fc2","altitude":221.5,"gps":{"latitude":49.22719787111231,"longitude":16.597242863076303},"aircraft_orientation":{"pitch":2.7,"roll":0.7,"yaw":-113.9,"compass":-113.9000015258789},"aircraft_velocity":{"velocity_x":0,"velocity_y":0,"velocity_z":0},"gimbal_orientation":{"pitch":0,"roll":0,"yaw":-122.69999694824219,"yaw_relative":-0.10000000149011612},"timestamp":"2023-09-06 15:59:11.764"}
{"client_id":"15357fc2","altitude":221.5,"gps":{"latitude":49.22719794459269,"longitude":16.597242854769476},"aircraft_orientation":{"pitch":2.7,"roll":0.7,"yaw":-113.9,"compass":-113.9000015258789},"aircraft_velocity":{"velocity_x":0,"velocity_y":0,"velocity_z":0},"gimbal_orientation":{"pitch":0,"roll":0,"yaw":-122.69999694824219,"yaw_relative":0},"timestamp":"2023-09-06 15:59:11.875"}
{"client_id":"15357fc2","altitude":221.5,"gps":{"latitude":49.22719809632079,"longitude":16.597242872716222},"aircraft_orientation":{"pitch":2.7,"roll":0.7,"yaw":-113.9,"compass":-113.9000015258789},"aircraft_velocity":{"velocity_x":0,"velocity_y":0,"velocity_z":0},"gimbal_orientation":{"pitch":0,"roll":0,"yaw":-122.69999694824219,"yaw_relative":0},"timestamp":"2023-09-06 15:59:11.985"}
{"client_id":"15357fc2","altitude":221.5,"gps":{"latitude":49.227198177246166,"longitude":16.597242866110605},"aircraft_orientation":{"pitch":2.7,"roll":0.7,"yaw":-113.9,"compass":-113.9000015258789},"aircraft_velocity":{"velocity_x":0,"velocity_y":0,"velocity_z":0},"gimbal_orientation":{"pitch":0,"roll":0,"yaw":-122.69999694824219,"yaw_relative":0},"timestamp":"2023-09-06 15:59:12.095"}
{"client_id":"15357fc2","altitude":221.5,"gps":{"latitude":49.22719816997625,"longitude":16.597242878987334},"aircraft_orientation":{"pitch":2.7,"roll":0.7,"yaw":-113.9,"compass":-113.9000015258789},"aircraft_velocity":{"velocity_x":0,"velocity_y":0,"velocity_z":0},"gimbal_orientation":{"pitch":0,"roll":0,"yaw":-122.69999694824219,"yaw_relative":0},"timestamp":"2023-09-06 15:59:12.205"}
{"client_id":"15357fc2","altitude":221.5,"gps":{"latitude":49.22719824395242,"longitude":16.597242873626264},"aircraft_orientation":{"pitch":2.7,"roll":0.7,"yaw":-113.9,"compass":-113.9000015258789},"aircraft_velocity":{"velocity_x":0,"velocity_y":0,"velocity_z":0},"gimbal_orientation":{"pitch":0,"roll":0,"yaw":-122.69999694824219,"yaw_relative":0},"timestamp":"2023-09-06 15:59:12.316"}
{"client_id":"15357fc2","altitude":221.5,"gps":{"latitude":49.22719839555524,"longitude":16.59724288343918},"aircraft_orientation":{"pitch":2.7,"roll":0.7,"yaw":-113.9,"compass":-113.9000015258789},"aircraft_velocity":{"velocity_x":0,"velocity_y":0,"velocity_z":0},"gimbal_orientation":{"pitch":0,"roll":0,"yaw":-122.69999694824219,"yaw_relative":0},"timestamp":"2023-09-06 15:59:12.426"}
{"client_id":"15357fc2","altitude":221.5,"gps":{"latitude":49.227198468382944,"longitude":16.59724288665877},"aircraft_orientation":{"pitch":2.7,"roll":0.7,"yaw":-113.9,"compass":-113.9000015258789},"aircraft_velocity":{"velocity_x":0,"velocity_y":0,"velocity_z":0},"gimbal_orientation":{"pitch":0,"roll":0,"yaw":-122.9000015258789,"yaw_relative":-0.20000000298023224},"timestamp":"2023-09-06 15:59:12.535"}
{"client_id":"15357fc2","altitude":221.5,"gps":{"latitude":49.22719854136912,"longitude":16.59724288471734},"aircraft_orientation":{"pitch":2.7,"roll":0.7,"yaw":-113.9,"compass":-113.9000015258789},"aircraft_velocity":{"velocity_x":0,"velocity_y":0,"velocity_z":0},"gimbal_orientation":{"pitch":0,"roll":0,"yaw":-122.9000015258789,"yaw_relative":-0.20000000298023224},"timestamp":"2023-09-06 15:59:12.646"}
{"client_id":"15357fc2","altitude":221.5,"gps":{"latitude":49.227198693443114,"longitude":16.597242890932698},"aircraft_orientation":{"pitch":2.7,"roll":0.7,"yaw":-113.9,"compass":-113.9000015258789},"aircraft_velocity":{"velocity_x":0,"velocity_y":0,"velocity_z":0},"gimbal_orientation":{"pitch":0,"roll":0,"yaw":-122.9000015258789,"yaw_relative":-0.10000000149011612},"timestamp":"2023-09-06 15:59:12.762"}
{"client_id":"15357fc2","altitude":221.5,"gps":{"latitude":49.227198774034385,"longitude":16.597242890913844},"aircraft_orientation":{"pitch":2.7,"roll":0.7,"yaw":-113.9,"compass":-113.9000015258789},"aircraft_velocity":{"velocity_x":0,"velocity_y":0,"velocity_z":0},"gimbal_orientation":{"pitch":0,"roll":0,"yaw":-122.9000015258789,"yaw_relative":-0.20000000298023224},"timestamp":"2023-09-06 15:59:12.866"}
{"client_id":"15357fc2","altitude":221.5,"gps":{"latitude":49.22719876805965,"longitude":16.597242891785356},"aircraft_orientation":{"pitch":2.7,"roll":0.7,"yaw":-113.9,"compass":-113.9000015258789},"aircraft_velocity":{"velocity_x":0,"velocity_y":0,"velocity_z":0},"gimbal_orientation":{"pitch":0,"roll":0,"yaw":-122.9000015258789,"yaw_relative":-0.20000000298023224},"timestamp":"2023-09-06 15:59:12.969"}
{"client_id":"15357fc2","altitude":221.5,"gps":{"latitude":49.227198840784006,"longitude":16.597242890544905},"aircraft_orientation":{"pitch":2.7,"roll":0.7,"yaw":-113.9,"compass":-113.9000015258789},"aircraft_velocity":{"velocity_x":0,"velocity_y":0,"velocity_z":0},"gimbal_orientation":{"pitch":0,"roll":0,"yaw":-122.9000015258789,"yaw_relative":-0.30000001192092896},"timestamp":"2023-09-06 15:59:13.073"}
{"client_id":"15357fc2","altitude":221.5,"gps":{"latitude":49.22719884501114,"longitude":16.597242890708056},"aircraft_orientation":{"pitch":2.7,"roll":0.7,"yaw":-113.9,"compass":-113.9000015258789},"aircraft_velocity":{"velocity_x":0,"velocity_y":0,"velocity_z":0},"gimbal_orientation":{"pitch":0,"roll":0,"yaw":-122.9000015258789,"yaw_relative":-0.20000000298023224},"timestamp":"2023-09-06 15:59:13.184"}
{"client_id":"15357fc2","altitude":221.5,"gps":{"latitude":49.227198910351,"longitude":16.597242887586848},"aircraft_orientation":{"pitch":2.7,"roll":0.7,"yaw":-113.9,"compass":-113.9000015258789},"aircraft_velocity":{"velocity_x":0,"velocity_y":0,"velocity_z":0},"gimbal_orientation":{"pitch":0,"roll":0,"yaw":-122.9000015258789,"yaw_relative":-0.20000000298023224},"timestamp":"2023-09-06 15:59:13.293"}
{"client_id":"15357fc2","altitude":221.5,"gps":{"latitude":49.22719907210537,"longitude":16.597242887182656},"aircraft_orientation":{"pitch":2.7,"roll":0.7,"yaw":-113.9,"compass":-113.9000015258789},"aircraft_velocity":{"velocity_x":0,"velocity_y":0,"velocity_z":0},"gimbal_orientation":{"pitch":0,"roll":0,"yaw":-122.9000015258789,"yaw_relative":-0.20000000298023224},"timestamp":"2023-09-06 15:59:13.403"}
{"client_id":"15357fc2","altitude":221.5,"gps":{"latitude":49.227199146035495,"longitude":16.597242884295106},"aircraft_orientation":{"pitch":2.7,"roll":0.7,"yaw":-113.9,"compass":-113.9000015258789},"aircraft_velocity":{"velocity_x":0,"velocity_y":0,"velocity_z":0},"gimbal_orientation":{"pitch":0,"roll":0,"yaw":-122.9000015258789,"yaw_relative":-0.20000000298023224},"timestamp":"2023-09-06 15:59:13.513"}
{"client_id":"15357fc2","altitude":221.5,"gps":{"latitude":49.227199150068806,"longitude":16.597242886733373},"aircraft_orientation":{"pitch":2.7,"roll":0.7,"yaw":-113.9,"compass":-113.9000015258789},"aircraft_velocity":{"velocity_x":0,"velocity_y":0,"velocity_z":0},"gimbal_orientation":{"pitch":0,"roll":0,"yaw":-122.9000015258789,"yaw_relative":-0.20000000298023224},"timestamp":"2023-09-06 15:59:13.618"}
{"client_id":"15357fc2","altitude":221.5,"gps":{"latitude":49.22719921701439,"longitude":16.597242883627743},"aircraft_orientation":{"pitch":2.7,"roll":0.7,"yaw":-113.9,"compass":-113.9000015258789},"aircraft_velocity":{"velocity_x":0,"velocity_y":0,"velocity_z":0},"gimbal_orientation":{"pitch":0,"roll":0,"yaw":-122.9000015258789,"yaw_relative":-0.30000001192092896},"timestamp":"2023-09-06 15:59:13.725"}
{"client_id":"15357fc2","altitude":221.5,"gps":{"latitude":49.227199292074246,"longitude":16.59724288381303},"aircraft_orientation":{"pitch":2.7,"roll":0.7,"yaw":-113.9,"compass":-113.9000015258789},"aircraft_velocity":{"velocity_x":0,"velocity_y":0,"velocity_z":0},"gimbal_orientation":{"pitch":0,"roll":0,"yaw":-122.9000015258789,"yaw_relative":-0.30000001192092896},"timestamp":"2023-09-06 15:59:13.833"}
{"client_id":"15357fc2","altitude":221.5,"gps":{"latitude":49.227199466874104,"longitude":16.597242886732552},"aircraft_orientation":{"pitch":2.7,"roll":0.7,"yaw":-113.9,"compass":-113.9000015258789},"aircraft_velocity":{"velocity_x":0,"velocity_y":0,"velocity_z":0},"gimbal_orientation":{"pitch":0,"roll":0,"yaw":-122.9000015258789,"yaw_relative":-0.20000000298023224},"timestamp":"2023-09-06 15:59:13.948"}
{"client_id":"15357fc2","altitude":221.5,"gps":{"latitude":49.22719953819192,"longitude":16.597242883295696},"aircraft_orientation":{"pitch":2.7,"roll":0.7,"yaw":-113.9,"compass":-113.9000015258789},"aircraft_velocity":{"velocity_x":0,"velocity_y":0,"velocity_z":0},"gimbal_orientation":{"pitch":0,"roll":0,"yaw":-122.9000015258789,"yaw_relative":-0.20000000298023224},"timestamp":"2023-09-06 15:59:14.055"}
{"client_id":"15357fc2","altitude":221.5,"gps":{"latitude":49.227199541675354,"longitude":16.59724288727284},"aircraft_orientation":{"pitch":2.7,"roll":0.7,"yaw":-113.9,"compass":-113.9000015258789},"aircraft_velocity":{"velocity_x":0,"velocity_y":0,"velocity_z":0},"gimbal_orientation":{"pitch":0,"roll":0,"yaw":-122.9000015258789,"yaw_relative":-0.30000001192092896},"timestamp":"2023-09-06 15:59:14.164"}
{"client_id":"15357fc2","altitude":221.5,"gps":{"latitude":49.227199606076624,"longitude":16.597242884744393},"aircraft_orientation":{"pitch":2.7,"roll":0.7,"yaw":-113.9,"compass":-113.9000015258789},"aircraft_velocity":{"velocity_x":0,"velocity_y":0,"velocity_z":0},"gimbal_orientation":{"pitch":0,"roll":0,"yaw":-122.9000015258789,"yaw_relative":-0.20000000298023224},"timestamp":"2023-09-06 15:59:14.274"}
{"client_id":"15357fc2","altitude":221.5,"gps":{"latitude":49.22719962482058,"longitude":16.597242888785484},"aircraft_orientation":{"pitch":2.7,"roll":0.7,"yaw":-113.9,"compass":-113.9000015258789},"aircraft_velocity":{"velocity_x":0,"velocity_y":0,"velocity_z":0},"gimbal_orientation":{"pitch":0,"roll":0,"yaw":-122.9000015258789,"yaw_relative":-0.20000000298023224},"timestamp":"2023-09-06 15:59:14.386"}
{"client_id":"15357fc2","altitude":221.5,"gps":{"latitude":49.22719968391852,"longitude":16.59724288593073},"aircraft_orientation":{"pitch":2.7,"roll":0.7,"yaw":-113.9,"compass":-113.9000015258789},"aircraft_velocity":{"velocity_x":0,"velocity_y":0,"velocity_z":0},"gimbal_orientation":{"pitch":0,"roll":0,"yaw":-122.9000015258789,"yaw_relative":-0.20000000298023224},"timestamp":"2023-09-06 15:59:14.495"}
{"client_id":"15357fc2","altitude":221.5,"gps":{"latitude":49.2271998577241,"longitude":16.597242888832216},"aircraft_orientation":{"pitch":2.7,"roll":0.7,"yaw":-113.9,"compass":-113.9000015258789},"aircraft_velocity":{"velocity_x":0,"velocity_y":0,"velocity_z":0},"gimbal_orientation":{"pitch":0,"roll":0,"yaw":-122.9000015258789,"yaw_relative":-0.20000000298023224},"timestamp":"2023-09-06 15:59:14.608"}
