{"client_id": "abc", "altitude": 221.2, "gps": {"latitude": 49.22729538594455, "longitude": 16.597286269759273}, "aircraft_orientation": {"pitch": 4.1, "roll": 0.2, "yaw": -116.5, "compass": -116.5}, "aircraft_velocity": {"velocity_x": 0.0, "velocity_y": 0.0, "velocity_z": 0.0}, "gimbal_orientation": {"pitch": 0.0, "roll": 0.0, "yaw": 0.0, "yaw_relative": 0.0}, "timestamp": "2023-04-05T14:45:06.843+02:00"}
{"client_id": "abc", "altitude": 221.2, "gps": {"latitude": 49.22729523698427, "longitude": 16.597286273615904}, "aircraft_orientation": {"pitch": 4.1, "roll": 0.2, "yaw": -116.5, "compass": -116.5}, "aircraft_velocity": {"velocity_x": 0.0, "velocity_y": 0.0, "velocity_z": 0.0}, "gimbal_orientation": {"pitch": 0.0, "roll": 0.0, "yaw": 0.0, "yaw_relative": 0.0}, "timestamp": "2023-04-05T14:45:06.843+02:00"}
{"client_id": "abc", "altitude": 221.2, "gps": {"latitude": 49.22729513633666, "longitude": 16.597286306739157}, "aircraft_orientation": {"pitch": 4.1, "roll": 0.2, "yaw": -116.5, "compass": -116.5}, "aircraft_velocity": {"velocity_x": 0.0, "velocity_y": 0.0, "velocity_z": 0.0}, "gimbal_orientation": {"pitch": 0.0, "roll": 0.0, "yaw": 0.0, "yaw_relative": 0.0}, "timestamp": "2023-04-05T14:45:06.843+02:00"}
{"client_id": "abc", "altitude": 221.2, "gps": {"latitude": 49.22729502046961, "longitude": 16.59728633706996}, "aircraft_orientation": {"pitch": 4.1, "roll": 0.2, "yaw": -116.5, "compass": -116.5}, "aircraft_velocity": {"velocity_x": 0.0, "velocity_y": 0.0, "velocity_z": 0.0}, "gimbal_orientation": {"pitch": 0.0, "roll": 0.0, "yaw": 0.0, "yaw_relative": 0.0}, "timestamp": "2023-04-05T14:45:06.843+02:00"}
{"client_id": "abc", "altitude": 221.2, "gps": {"latitude": 49.22729502046961, "longitude": 16.59728633706996}, "aircraft_orientation": {"pitch": 4.1, "roll": 0.2, "yaw": -116.5, "compass": -116.5}, "aircraft_velocity": {"velocity_x": 0.0, "velocity_y": 0.0, "velocity_z": 0.0}, "gimbal_orientation": {"pitch": 0.0, "roll": 0.0, "yaw": 0.0, "yaw_relative": 0.0}, "timestamp": "2023-04-05T14:45:06.843+02:00"}
{"client_id": "abc", "altitude": 221.2, "gps": {"latitude": 49.2272949647182, "longitude": 16.597286317911422}, "aircraft_orientation": {"pitch": 4.1, "roll": 0.2, "yaw": -116.5, "compass": -116.5}, "aircraft_velocity": {"velocity_x": 0.0, "velocity_y": 0.0, "velocity_z": 0.0}, "gimbal_orientation": {"pitch": 0.0, "roll": 0.0, "yaw": 0.0, "yaw_relative": 0.0}, "timestamp": "2023-04-05T14:45:06.843+02:00"}
{"client_id": "abc", "altitude": 221.2, "gps": {"latitude": 49.22729493298634, "longitude": 16.59728628815698}, "aircraft_orientation": {"pitch": 4.1, "roll": 0.2, "yaw": -116.5, "compass": -116.5}, "aircraft_velocity": {"velocity_x": 0.0, "velocity_y": 0.0, "velocity_z": 0.0}, "gimbal_orientation": {"pitch": 0.0, "roll": 0.0, "yaw": 0.0, "yaw_relative": 0.0}, "timestamp": "2023-04-05T14:45:06.843+02:00"}
{"client_id": "abc", "altitude": 221.2, "gps": {"latitude": 49.22729483700911, "longitude": 16.59728627961648}, "aircraft_orientation": {"pitch": 4.1, "roll": 0.2, "yaw": -116.5, "compass": -116.5}, "aircraft_velocity": {"velocity_x": 0.0, "velocity_y": 0.0, "velocity_z": 0.0}, "gimbal_orientation": {"pitch": 0.0, "roll": 0.0, "yaw": 0.0, "yaw_relative": 0.0}, "timestamp": "2023-04-05T14:45:06.843+02:00"}
{"client_id": "abc", "altitude": 221.2, "gps": {"latitude": 49.2272947785154, "longitude": 16.597286265530425}, "aircraft_orientation": {"pitch": 4.1, "roll": 0.2, "yaw": -116.5, "compass": -116.5}, "aircraft_velocity": {"velocity_x": 0.0, "velocity_y": 0.0, "velocity_z": 0.0}, "gimbal_orientation": {"pitch": 0.0, "roll": 0.0, "yaw": 0.0, "yaw_relative": 0.0}, "timestamp": "2023-04-05T14:45:06.843+02:00"}
{"client_id": "abc", "altitude": 221.2, "gps": {"latitude": 49.22729471674201, "longitude": 16.597286256529156}, "aircraft_orientation": {"pitch": 4.1, "roll": 0.2, "yaw": -116.5, "compass": -116.5}, "aircraft_velocity": {"velocity_x": 0.0, "velocity_y": 0.0, "velocity_z": 0.0}, "gimbal_orientation": {"pitch": 0.0, "roll": 0.0, "yaw": 0.0, "yaw_relative": 0.0}, "timestamp": "2023-04-05T14:45:06.843+02:00"}
{"client_id": "abc", "altitude": 221.2, "gps": {"latitude": 49.22729471473251, "longitude": 16.597286244167275}, "aircraft_orientation": {"pitch": 4.1, "roll": 0.2, "yaw": -116.5, "compass": -116.5}, "aircraft_velocity": {"velocity_x": 0.0, "velocity_y": 0.0, "velocity_z": 0.0}, "gimbal_orientation": {"pitch": 0.0, "roll": 0.0, "yaw": 0.0, "yaw_relative": 0.0}, "timestamp": "2023-04-05T14:45:06.843+02:00"}
{"client_id": "abc", "altitude": 221.2, "gps": {"latitude": 49.227294703600464, "longitude": 16.597286235917817}, "aircraft_orientation": {"pitch": 4.1, "roll": 0.2, "yaw": -116.5, "compass": -116.5}, "aircraft_velocity": {"velocity_x": 0.0, "velocity_y": 0.0, "velocity_z": 0.0}, "gimbal_orientation": {"pitch": 0.0, "roll": 0.0, "yaw": 0.0, "yaw_relative": 0.0}, "timestamp": "2023-04-05T14:45:06.843+02:00"}
{"client_id": "abc", "altitude": 221.2, "gps": {"latitude": 49.227294694793834, "longitude": 16.59728622593354}, "aircraft_orientation": {"pitch": 4.1, "roll": 0.2, "yaw": -116.5, "compass": -116.5}, "aircraft_velocity": {"velocity_x": 0.0, "velocity_y": 0.0, "velocity_z": 0.0}, "gimbal_orientation": {"pitch": 0.0, "roll": 0.0, "yaw": 0.0, "yaw_relative": 0.0}, "timestamp": "2023-04-05T14:45:06.843+02:00"}
{"client_id": "abc", "altitude": 221.2, "gps": {"latitude": 49.22729465356489, "longitude": 16.597286218294062}, "aircraft_orientation": {"pitch": 4.1, "roll": 0.2, "yaw": -116.5, "compass": -116.5}, "aircraft_velocity": {"velocity_x": 0.0, "velocity_y": 0.0, "velocity_z": 0.0}, "gimbal_orientation": {"pitch": 0.0, "roll": 0.0, "yaw": 0.0, "yaw_relative": 0.0}, "timestamp": "2023-04-05T14:45:06.843+02:00"}
{"client_id": "abc", "altitude": 221.2, "gps": {"latitude": 49.227294628490114, "longitude": 16.59728623608425}, "aircraft_orientation": {"pitch": 4.1, "roll": 0.2, "yaw": -116.5, "compass": -116.5}, "aircraft_velocity": {"velocity_x": 0.0, "velocity_y": 0.0, "velocity_z": 0.0}, "gimbal_orientation": {"pitch": 0.0, "roll": 0.0, "yaw": 0.0, "yaw_relative": 0.0}, "timestamp": "2023-04-05T14:45:06.843+02:00"}
{"client_id": "abc", "altitude": 221.2, "gps": {"latitude": 49.2272945913681, "longitude": 16.597286260976087}, "aircraft_orientation": {"pitch": 4.1, "roll": 0.2, "yaw": -116.5, "compass": -116.5}, "aircraft_velocity": {"velocity_x": 0.0, "velocity_y": 0.0, "velocity_z": 0.0}, "gimbal_orientation": {"pitch": 0.0, "roll": 0.0, "yaw": 0.0, "yaw_relative": 0.0}, "timestamp": "2023-04-05T14:45:06.843+02:00"}
{"client_id": "abc", "altitude": 221.2, "gps": {"latitude": 49.2272945847957, "longitude": 16.59728624698432}, "aircraft_orientation": {"pitch": 4.1, "roll": 0.2, "yaw": -116.5, "compass": -116.5}, "aircraft_velocity": {"velocity_x": 0.0, "velocity_y": 0.0, "velocity_z": 0.0}, "gimbal_orientation": {"pitch": 0.0, "roll": 0.0, "yaw": 0.0, "yaw_relative": 0.0}, "timestamp": "2023-04-05T14:45:06.843+02:00"}
{"client_id": "abc", "altitude": 221.2, "gps": {"latitude": 49.2272945847957, "longitude": 16.59728624698432}, "aircraft_orientation": {"pitch": 4.1, "roll": 0.2, "yaw": -116.5, "compass": -116.5}, "aircraft_velocity": {"velocity_x": 0.0, "velocity_y": 0.0, "velocity_z": 0.0}, "gimbal_orientation": {"pitch": 0.0, "roll": 0.0, "yaw": 0.0, "yaw_relative": 0.0}, "timestamp": "2023-04-05T14:45:06.843+02:00"}
{"client_id": "abc", "altitude": 221.2, "gps": {"latitude": 49.22729456458345, "longitude": 16.597286225093182}, "aircraft_orientation": {"pitch": 4.1, "roll": 0.2, "yaw": -116.5, "compass": -116.5}, "aircraft_velocity": {"velocity_x": 0.0, "velocity_y": 0.0, "velocity_z": 0.0}, "gimbal_orientation": {"pitch": 0.0, "roll": 0.0, "yaw": 0.0, "yaw_relative": 0.0}, "timestamp": "2023-04-05T14:45:06.843+02:00"}
{"client_id": "abc", "altitude": 221.2, "gps": {"latitude": 49.22729454329969, "longitude": 16.59728621758406}, "aircraft_orientation": {"pitch": 4.1, "roll": 0.2, "yaw": -116.5, "compass": -116.5}, "aircraft_velocity": {"velocity_x": 0.0, "velocity_y": 0.0, "velocity_z": 0.0}, "gimbal_orientation": {"pitch": 0.0, "roll": 0.0, "yaw": 0.0, "yaw_relative": 0.0}, "timestamp": "2023-04-05T14:45:06.843+02:00"}
{"client_id": "abc", "altitude": 221.2, "gps": {"latitude": 49.227294512154074, "longitude": 16.597286212940364}, "aircraft_orientation": {"pitch": 4.1, "roll": 0.2, "yaw": -116.5, "compass": -116.5}, "aircraft_velocity": {"velocity_x": 0.0, "velocity_y": 0.0, "velocity_z": 0.0}, "gimbal_orientation": {"pitch": 0.0, "roll": 0.0, "yaw": 0.0, "yaw_relative": 0.0}, "timestamp": "2023-04-05T14:45:06.843+02:00"}
{"client_id": "abc", "altitude": 221.2, "gps": {"latitude": 49.22729447826615, "longitude": 16.59728620997984}, "aircraft_orientation": {"pitch": 4.1, "roll": 0.2, "yaw": -116.5, "compass": -116.5}, "aircraft_velocity": {"velocity_x": 0.0, "velocity_y": 0.0, "velocity_z": 0.0}, "gimbal_orientation": {"pitch": 0.0, "roll": 0.0, "yaw": 0.0, "yaw_relative": 0.0}, "timestamp": "2023-04-05T14:45:06.843+02:00"}
{"client_id": "abc", "altitude": 221.2, "gps": {"latitude": 49.227294439395195, "longitude": 16.597286208572136}, "aircraft_orientation": {"pitch": 4.1, "roll": 0.2, "yaw": -116.5, "compass": -116.5}, "aircraft_velocity": {"velocity_x": 0.0, "velocity_y": 0.0, "velocity_z": 0.0}, "gimbal_orientation": {"pitch": 0.0, "roll": 0.0, "yaw": 0.0, "yaw_relative": 0.0}, "timestamp": "2023-04-05T14:45:06.843+02:00"}
{"client_id": "abc", "altitude": 221.2, "gps": {"latitude": 49.22729437057064, "longitude": 16.597286234342047}, "aircraft_orientation": {"pitch": 4.1, "roll": 0.2, "yaw": -116.5, "compass": -116.5}, "aircraft_velocity": {"velocity_x": 0.0, "velocity_y": 0.0, "velocity_z": 0.0}, "gimbal_orientation": {"pitch": 0.0, "roll": 0.0, "yaw": 0.0, "yaw_relative": 0.0}, "timestamp": "2023-04-05T14:45:06.843+02:00"}
{"client_id": "abc", "altitude": 221.2, "gps": {"latitude": 49.227294295473314, "longitude": 16.597286265595194}, "aircraft_orientation": {"pitch": 4.1, "roll": 0.2, "yaw": -116.5, "compass": -116.5}, "aircraft_velocity": {"velocity_x": 0.0, "velocity_y": 0.0, "velocity_z": 0.0}, "gimbal_orientation": {"pitch": 0.0, "roll": 0.0, "yaw": 0.0, "yaw_relative": 0.0}, "timestamp": "2023-04-05T14:45:06.843+02:00"}
{"client_id": "abc", "altitude": 221.2, "gps": {"latitude": 49.227294240770625, "longitude": 16.59728629786579}, "aircraft_orientation": {"pitch": 4.1, "roll": 0.2, "yaw": -116.5, "compass": -116.5}, "aircraft_velocity": {"velocity_x": 0.0, "velocity_y": 0.0, "velocity_z": 0.0}, "gimbal_orientation": {"pitch": 0.0, "roll": 0.0, "yaw": 0.0, "yaw_relative": 0.0}, "timestamp": "2023-04-05T14:45:06.843+02:00"}
{"client_id": "abc", "altitude": 221.2, "gps": {"latitude": 49.22729420232306, "longitude": 16.597286318786214}, "aircraft_orientation": {"pitch": 4.1, "roll": 0.2, "yaw": -116.5, "compass": -116.5}, "aircraft_velocity": {"velocity_x": 0.0, "velocity_y": 0.0, "velocity_z": 0.0}, "gimbal_orientation": {"pitch": 0.0, "roll": 0.0, "yaw": 0.0, "yaw_relative": 0.0}, "timestamp": "2023-04-05T14:45:06.843+02:00"}
{"client_id": "abc", "altitude": 221.2, "gps": {"latitude": 49.22729416307104, "longitude": 16.5972863360107}, "aircraft_orientation": {"pitch": 4.1, "roll": 0.2, "yaw": -116.5, "compass": -116.5}, "aircraft_velocity": {"velocity_x": 0.0, "velocity_y": 0.0, "velocity_z": 0.0}, "gimbal_orientation": {"pitch": 0.0, "roll": 0.0, "yaw": 0.0, "yaw_relative": 0.0}, "timestamp": "2023-04-05T14:45:06.843+02:00"}
{"client_id": "abc", "altitude": 221.2, "gps": {"latitude": 49.22729411934081, "longitude": 16.59728634717722}, "aircraft_orientation": {"pitch": 4.1, "roll": 0.2, "yaw": -116.5, "compass": -116.5}, "aircraft_velocity": {"velocity_x": 0.0, "velocity_y": 0.0, "velocity_z": 0.0}, "gimbal_orientation": {"pitch": 0.0, "roll": 0.0, "yaw": 0.0, "yaw_relative": 0.0}, "timestamp": "2023-04-05T14:45:06.843+02:00"}
{"client_id": "abc", "altitude": 221.2, "gps": {"latitude": 49.22729404774139, "longitude": 16.597286378794387}, "aircraft_orientation": {"pitch": 4.1, "roll": 0.2, "yaw": -116.5, "compass": -116.5}, "aircraft_velocity": {"velocity_x": 0.0, "velocity_y": 0.0, "velocity_z": 0.0}, "gimbal_orientation": {"pitch": 0.0, "roll": 0.0, "yaw": 0.0, "yaw_relative": 0.0}, "timestamp": "2023-04-05T14:45:06.843+02:00"}
{"client_id": "abc", "altitude": 221.2, "gps": {"latitude": 49.22729396975195, "longitude": 16.597286412908034}, "aircraft_orientation": {"pitch": 4.1, "roll": 0.2, "yaw": -116.5, "compass": -116.5}, "aircraft_velocity": {"velocity_x": 0.0, "velocity_y": 0.0, "velocity_z": 0.0}, "gimbal_orientation": {"pitch": 0.0, "roll": 0.0, "yaw": 0.0, "yaw_relative": 0.0}, "timestamp": "2023-04-05T14:45:06.843+02:00"}
{"client_id": "abc", "altitude": 221.2, "gps": {"latitude": 49.22729391562247, "longitude": 16.597286441585176}, "aircraft_orientation": {"pitch": 4.1, "roll": 0.2, "yaw": -116.5, "compass": -116.5}, "aircraft_velocity": {"velocity_x": 0.0, "velocity_y": 0.0, "velocity_z": 0.0}, "gimbal_orientation": {"pitch": 0.0, "roll": 0.0, "yaw": 0.0, "yaw_relative": 0.0}, "timestamp": "2023-04-05T14:45:06.843+02:00"}
{"client_id": "abc", "altitude": 221.2, "gps": {"latitude": 49.22729387695669, "longitude": 16.59728645983777}, "aircraft_orientation": {"pitch": 4.1, "roll": 0.2, "yaw": -116.5, "compass": -116.5}, "aircraft_velocity": {"velocity_x": 0.0, "velocity_y": 0.0, "velocity_z": 0.0}, "gimbal_orientation": {"pitch": 0.0, "roll": 0.0, "yaw": 0.0, "yaw_relative": 0.0}, "timestamp": "2023-04-05T14:45:06.843+02:00"}
{"client_id": "abc", "altitude": 221.2, "gps": {"latitude": 49.22729386558364, "longitude": 16.597286469592486}, "aircraft_orientation": {"pitch": 4.1, "roll": 0.2, "yaw": -116.5, "compass": -116.5}, "aircraft_velocity": {"velocity_x": 0.0, "velocity_y": 0.0, "velocity_z": 0.0}, "gimbal_orientation": {"pitch": 0.0, "roll": 0.0, "yaw": 0.0, "yaw_relative": 0.0}, "timestamp": "2023-04-05T14:45:06.843+02:00"}
{"client_id": "abc", "altitude": 221.2, "gps": {"latitude": 49.22729385340288, "longitude": 16.597286475398754}, "aircraft_orientation": {"pitch": 4.1, "roll": 0.2, "yaw": -116.5, "compass": -116.5}, "aircraft_velocity": {"velocity_x": 0.0, "velocity_y": 0.0, "velocity_z": 0.0}, "gimbal_orientation": {"pitch": 0.0, "roll": 0.0, "yaw": 0.0, "yaw_relative": 0.0}, "timestamp": "2023-04-05T14:45:06.843+02:00"}
{"client_id": "abc", "altitude": 221.2, "gps": {"latitude": 49.22729384068473, "longitude": 16.597286498956674}, "aircraft_orientation": {"pitch": 4.1, "roll": 0.2, "yaw": -116.5, "compass": -116.5}, "aircraft_velocity": {"velocity_x": 0.0, "velocity_y": 0.0, "velocity_z": 0.0}, "gimbal_orientation": {"pitch": 0.0, "roll": 0.0, "yaw": 0.0, "yaw_relative": 0.0}, "timestamp": "2023-04-05T14:45:06.843+02:00"}
{"client_id": "abc", "altitude": 221.2, "gps": {"latitude": 49.22729381420949, "longitude": 16.597286528694717}, "aircraft_orientation": {"pitch": 4.1, "roll": 0.2, "yaw": -116.5, "compass": -116.5}, "aircraft_velocity": {"velocity_x": 0.0, "velocity_y": 0.0, "velocity_z": 0.0}, "gimbal_orientation": {"pitch": 0.0, "roll": 0.0, "yaw": 0.0, "yaw_relative": 0.0}, "timestamp": "2023-04-05T14:45:06.843+02:00"}
{"client_id": "abc", "altitude": 221.2, "gps": {"latitude": 49.2272937839302, "longitude": 16.597286552621576}, "aircraft_orientation": {"pitch": 4.1, "roll": 0.2, "yaw": -116.5, "compass": -116.5}, "aircraft_velocity": {"velocity_x": 0.0, "velocity_y": 0.0, "velocity_z": 0.0}, "gimbal_orientation": {"pitch": 0.0, "roll": 0.0, "yaw": 0.0, "yaw_relative": 0.0}, "timestamp": "2023-04-05T14:45:06.843+02:00"}
{"client_id": "abc", "altitude": 221.2, "gps": {"latitude": 49.22729374695801, "longitude": 16.597286568813853}, "aircraft_orientation": {"pitch": 4.1, "roll": 0.2, "yaw": -116.5, "compass": -116.5}, "aircraft_velocity": {"velocity_x": 0.0, "velocity_y": 0.0, "velocity_z": 0.0}, "gimbal_orientation": {"pitch": 0.0, "roll": 0.0, "yaw": 0.0, "yaw_relative": 0.0}, "timestamp": "2023-04-05T14:45:06.843+02:00"}
{"client_id": "abc", "altitude": 221.2, "gps": {"latitude": 49.227293729514116, "longitude": 16.59728657692229}, "aircraft_orientation": {"pitch": 4.1, "roll": 0.2, "yaw": -116.4, "compass": -116.4}, "aircraft_velocity": {"velocity_x": 0.0, "velocity_y": 0.0, "velocity_z": 0.0}, "gimbal_orientation": {"pitch": 0.0, "roll": 0.0, "yaw": 0.0, "yaw_relative": 0.0}, "timestamp": "2023-04-05T14:45:06.843+02:00"}
{"client_id": "abc", "altitude": 221.2, "gps": {"latitude": 49.22729371465294, "longitude": 16.597286583386083}, "aircraft_orientation": {"pitch": 4.1, "roll": 0.2, "yaw": -116.4, "compass": -116.4}, "aircraft_velocity": {"velocity_x": 0.0, "velocity_y": 0.0, "velocity_z": 0.0}, "gimbal_orientation": {"pitch": 0.0, "roll": 0.0, "yaw": 0.0, "yaw_relative": 0.0}, "timestamp": "2023-04-05T14:45:06.843+02:00"}
{"client_id": "abc", "altitude": 221.2, "gps": {"latitude": 49.22729369398798, "longitude": 16.597286607355578}, "aircraft_orientation": {"pitch": 4.1, "roll": 0.2, "yaw": -116.4, "compass": -116.4}, "aircraft_velocity": {"velocity_x": 0.0, "velocity_y": 0.0, "velocity_z": 0.0}, "gimbal_orientation": {"pitch": 0.0, "roll": 0.0, "yaw": 0.0, "yaw_relative": 0.0}, "timestamp": "2023-04-05T14:45:06.843+02:00"}
{"client_id": "abc", "altitude": 221.2, "gps": {"latitude": 49.22729366342209, "longitude": 16.597286637369095}, "aircraft_orientation": {"pitch": 4.1, "roll": 0.2, "yaw": -116.4, "compass": -116.4}, "aircraft_velocity": {"velocity_x": 0.0, "velocity_y": 0.0, "velocity_z": 0.0}, "gimbal_orientation": {"pitch": 0.0, "roll": 0.0, "yaw": 0.0, "yaw_relative": 0.0}, "timestamp": "2023-04-05T14:45:06.843+02:00"}
{"client_id": "abc", "altitude": 221.2, "gps": {"latitude": 49.227293676716705, "longitude": 16.597286687270827}, "aircraft_orientation": {"pitch": 4.1, "roll": 0.2, "yaw": -116.4, "compass": -116.4}, "aircraft_velocity": {"velocity_x": 0.0, "velocity_y": 0.0, "velocity_z": 0.0}, "gimbal_orientation": {"pitch": 0.0, "roll": 0.0, "yaw": 0.0, "yaw_relative": 0.0}, "timestamp": "2023-04-05T14:45:06.843+02:00"}
{"client_id": "abc", "altitude": 221.2, "gps": {"latitude": 49.227293694062894, "longitude": 16.597286733147037}, "aircraft_orientation": {"pitch": 4.1, "roll": 0.2, "yaw": -116.4, "compass": -116.4}, "aircraft_velocity": {"velocity_x": 0.0, "velocity_y": 0.0, "velocity_z": 0.0}, "gimbal_orientation": {"pitch": 0.0, "roll": 0.0, "yaw": 0.0, "yaw_relative": 0.0}, "timestamp": "2023-04-05T14:45:06.843+02:00"}
{"client_id": "abc", "altitude": 221.2, "gps": {"latitude": 49.2272937519899, "longitude": 16.597286768622475}, "aircraft_orientation": {"pitch": 4.1, "roll": 0.2, "yaw": -116.4, "compass": -116.4}, "aircraft_velocity": {"velocity_x": 0.0, "velocity_y": 0.0, "velocity_z": 0.0}, "gimbal_orientation": {"pitch": 0.0, "roll": 0.0, "yaw": 0.0, "yaw_relative": 0.0}, "timestamp": "2023-04-05T14:45:06.843+02:00"}
{"client_id": "abc", "altitude": 221.2, "gps": {"latitude": 49.22729380186588, "longitude": 16.597286793695503}, "aircraft_orientation": {"pitch": 4.1, "roll": 0.2, "yaw": -116.4, "compass": -116.4}, "aircraft_velocity": {"velocity_x": 0.0, "velocity_y": 0.0, "velocity_z": 0.0}, "gimbal_orientation": {"pitch": 0.0, "roll": 0.0, "yaw": 0.0, "yaw_relative": 0.0}, "timestamp": "2023-04-05T14:45:06.843+02:00"}
{"client_id": "abc", "altitude": 221.2, "gps": {"latitude": 49.22729388702048, "longitude": 16.59728680728554}, "aircraft_orientation": {"pitch": 4.1, "roll": 0.2, "yaw": -116.4, "compass": -116.4}, "aircraft_velocity": {"velocity_x": 0.0, "velocity_y": 0.0, "velocity_z": 0.0}, "gimbal_orientation": {"pitch": 0.0, "roll": 0.0, "yaw": 0.0, "yaw_relative": 0.0}, "timestamp": "2023-04-05T14:45:06.843+02:00"}
{"client_id": "abc", "altitude": 221.2, "gps": {"latitude": 49.22729395300177, "longitude": 16.597286818548806}, "aircraft_orientation": {"pitch": 4.1, "roll": 0.2, "yaw": -116.4, "compass": -116.4}, "aircraft_velocity": {"velocity_x": 0.0, "velocity_y": 0.0, "velocity_z": 0.0}, "gimbal_orientation": {"pitch": 0.0, "roll": 0.0, "yaw": 0.0, "yaw_relative": 0.0}, "timestamp": "2023-04-05T14:45:06.843+02:00"}
{"client_id": "abc", "altitude": 221.2, "gps": {"latitude": 49.22729404565046, "longitude": 16.59728684279377}, "aircraft_orientation": {"pitch": 4.1, "roll": 0.2, "yaw": -116.4, "compass": -116.4}, "aircraft_velocity": {"velocity_x": 0.0, "velocity_y": 0.0, "velocity_z": 0.0}, "gimbal_orientation": {"pitch": 0.0, "roll": 0.0, "yaw": 0.0, "yaw_relative": 0.0}, "timestamp": "2023-04-05T14:45:06.843+02:00"}
{"client_id": "abc", "altitude": 221.2, "gps": {"latitude": 49.22729411770585, "longitude": 16.59728687469297}, "aircraft_orientation": {"pitch": 4.1, "roll": 0.2, "yaw": -116.4, "compass": -116.4}, "aircraft_velocity": {"velocity_x": 0.0, "velocity_y": 0.0, "velocity_z": 0.0}, "gimbal_orientation": {"pitch": 0.0, "roll": 0.0, "yaw": 0.0, "yaw_relative": 0.0}, "timestamp": "2023-04-05T14:45:06.843+02:00"}
{"client_id": "abc", "altitude": 221.2, "gps": {"latitude": 49.22729420836459, "longitude": 16.597286895847056}, "aircraft_orientation": {"pitch": 4.1, "roll": 0.2, "yaw": -116.4, "compass": -116.4}, "aircraft_velocity": {"velocity_x": 0.0, "velocity_y": 0.0, "velocity_z": 0.0}, "gimbal_orientation": {"pitch": 0.0, "roll": 0.0, "yaw": 0.0, "yaw_relative": 0.0}, "timestamp": "2023-04-05T14:45:06.843+02:00"}
{"client_id": "abc", "altitude": 221.2, "gps": {"latitude": 49.22729427994773, "longitude": 16.597286911593326}, "aircraft_orientation": {"pitch": 4.1, "roll": 0.2, "yaw": -116.4, "compass": -116.4}, "aircraft_velocity": {"velocity_x": 0.0, "velocity_y": 0.0, "velocity_z": 0.0}, "gimbal_orientation": {"pitch": 0.0, "roll": 0.0, "yaw": 0.0, "yaw_relative": 0.0}, "timestamp": "2023-04-05T14:45:06.843+02:00"}
{"client_id": "abc", "altitude": 221.2, "gps": {"latitude": 49.22729433838933, "longitude": 16.59728694014913}, "aircraft_orientation": {"pitch": 4.1, "roll": 0.2, "yaw": -116.4, "compass": -116.4}, "aircraft_velocity": {"velocity_x": 0.0, "velocity_y": 0.0, "velocity_z": 0.0}, "gimbal_orientation": {"pitch": 0.0, "roll": 0.0, "yaw": 0.0, "yaw_relative": 0.0}, "timestamp": "2023-04-05T14:45:06.843+02:00"}
{"client_id": "abc", "altitude": 221.2, "gps": {"latitude": 49.22729437708116, "longitude": 16.597286975513065}, "aircraft_orientation": {"pitch": 4.1, "roll": 0.2, "yaw": -116.4, "compass": -116.4}, "aircraft_velocity": {"velocity_x": 0.0, "velocity_y": 0.0, "velocity_z": 0.0}, "gimbal_orientation": {"pitch": 0.0, "roll": 0.0, "yaw": 0.0, "yaw_relative": 0.0}, "timestamp": "2023-04-05T14:45:06.843+02:00"}
{"client_id": "abc", "altitude": 221.2, "gps": {"latitude": 49.22729442375888, "longitude": 16.59728700024503}, "aircraft_orientation": {"pitch": 4.1, "roll": 0.2, "yaw": -116.4, "compass": -116.4}, "aircraft_velocity": {"velocity_x": 0.0, "velocity_y": 0.0, "velocity_z": 0.0}, "gimbal_orientation": {"pitch": 0.0, "roll": 0.0, "yaw": 0.0, "yaw_relative": 0.0}, "timestamp": "2023-04-05T14:45:06.843+02:00"}
{"client_id": "abc", "altitude": 221.2, "gps": {"latitude": 49.227294469788475, "longitude": 16.597287020067657}, "aircraft_orientation": {"pitch": 4.1, "roll": 0.2, "yaw": -116.4, "compass": -116.4}, "aircraft_velocity": {"velocity_x": 0.0, "velocity_y": 0.0, "velocity_z": 0.0}, "gimbal_orientation": {"pitch": 0.0, "roll": 0.0, "yaw": 0.0, "yaw_relative": 0.0}, "timestamp": "2023-04-05T14:45:06.843+02:00"}
{"client_id": "abc", "altitude": 221.2, "gps": {"latitude": 49.227294496768536, "longitude": 16.59728705201605}, "aircraft_orientation": {"pitch": 4.1, "roll": 0.2, "yaw": -116.4, "compass": -116.4}, "aircraft_velocity": {"velocity_x": 0.0, "velocity_y": 0.0, "velocity_z": 0.0}, "gimbal_orientation": {"pitch": 0.0, "roll": 0.0, "yaw": 0.0, "yaw_relative": 0.0}, "timestamp": "2023-04-05T14:45:06.843+02:00"}
{"client_id": "abc", "altitude": 221.2, "gps": {"latitude": 49.22729451685702, "longitude": 16.597287089093495}, "aircraft_orientation": {"pitch": 4.1, "roll": 0.2, "yaw": -116.4, "compass": -116.4}, "aircraft_velocity": {"velocity_x": 0.0, "velocity_y": 0.0, "velocity_z": 0.0}, "gimbal_orientation": {"pitch": 0.0, "roll": 0.0, "yaw": 0.0, "yaw_relative": 0.0}, "timestamp": "2023-04-05T14:45:06.843+02:00"}
{"client_id": "abc", "altitude": 221.2, "gps": {"latitude": 49.22729457730486, "longitude": 16.597287132131346}, "aircraft_orientation": {"pitch": 4.1, "roll": 0.2, "yaw": -116.4, "compass": -116.4}, "aircraft_velocity": {"velocity_x": 0.0, "velocity_y": 0.0, "velocity_z": 0.0}, "gimbal_orientation": {"pitch": 0.0, "roll": 0.0, "yaw": 0.0, "yaw_relative": 0.0}, "timestamp": "2023-04-05T14:45:06.843+02:00"}
{"client_id": "abc", "altitude": 221.2, "gps": {"latitude": 49.22729461926009, "longitude": 16.597287161626706}, "aircraft_orientation": {"pitch": 4.1, "roll": 0.2, "yaw": -116.4, "compass": -116.4}, "aircraft_velocity": {"velocity_x": 0.0, "velocity_y": 0.0, "velocity_z": 0.0}, "gimbal_orientation": {"pitch": 0.0, "roll": 0.0, "yaw": 0.0, "yaw_relative": 0.0}, "timestamp": "2023-04-05T14:45:06.843+02:00"}
{"client_id": "abc", "altitude": 221.2, "gps": {"latitude": 49.22729466250831, "longitude": 16.597287197180854}, "aircraft_orientation": {"pitch": 4.1, "roll": 0.2, "yaw": -116.4, "compass": -116.4}, "aircraft_velocity": {"velocity_x": 0.0, "velocity_y": 0.0, "velocity_z": 0.0}, "gimbal_orientation": {"pitch": 0.0, "roll": 0.0, "yaw": 0.0, "yaw_relative": 0.0}, "timestamp": "2023-04-05T14:45:06.843+02:00"}
{"client_id": "abc", "altitude": 221.2, "gps": {"latitude": 49.227294688788135, "longitude": 16.59728724419995}, "aircraft_orientation": {"pitch": 4.1, "roll": 0.2, "yaw": -116.4, "compass": -116.4}, "aircraft_velocity": {"velocity_x": 0.0, "velocity_y": 0.0, "velocity_z": 0.0}, "gimbal_orientation": {"pitch": 0.0, "roll": 0.0, "yaw": 0.0, "yaw_relative": 0.0}, "timestamp": "2023-04-05T14:45:06.843+02:00"}
{"client_id": "abc", "altitude": 221.2, "gps": {"latitude": 49.22729470831969, "longitude": 16.59728729047953}, "aircraft_orientation": {"pitch": 4.1, "roll": 0.2, "yaw": -116.4, "compass": -116.4}, "aircraft_velocity": {"velocity_x": 0.0, "velocity_y": 0.0, "velocity_z": 0.0}, "gimbal_orientation": {"pitch": 0.0, "roll": 0.0, "yaw": 0.0, "yaw_relative": 0.0}, "timestamp": "2023-04-05T14:45:06.843+02:00"}
{"client_id": "abc", "altitude": 221.2, "gps": {"latitude": 49.22729470844997, "longitude": 16.597287322055703}, "aircraft_orientation": {"pitch": 4.1, "roll": 0.2, "yaw": -116.4, "compass": -116.4}, "aircraft_velocity": {"velocity_x": 0.0, "velocity_y": 0.0, "velocity_z": 0.0}, "gimbal_orientation": {"pitch": 0.0, "roll": 0.0, "yaw": 0.0, "yaw_relative": 0.0}, "timestamp": "2023-04-05T14:45:06.843+02:00"}
{"client_id": "abc", "altitude": 221.2, "gps": {"latitude": 49.227294712234475, "longitude": 16.597287345785798}, "aircraft_orientation": {"pitch": 4.1, "roll": 0.2, "yaw": -116.4, "compass": -116.4}, "aircraft_velocity": {"velocity_x": 0.0, "velocity_y": 0.0, "velocity_z": 0.0}, "gimbal_orientation": {"pitch": 0.0, "roll": 0.0, "yaw": 0.0, "yaw_relative": 0.0}, "timestamp": "2023-04-05T14:45:06.843+02:00"}
{"client_id": "abc", "altitude": 221.2, "gps": {"latitude": 49.22729472615441, "longitude": 16.597287378581925}, "aircraft_orientation": {"pitch": 4.1, "roll": 0.2, "yaw": -116.4, "compass": -116.4}, "aircraft_velocity": {"velocity_x": 0.0, "velocity_y": 0.0, "velocity_z": 0.0}, "gimbal_orientation": {"pitch": 0.0, "roll": 0.0, "yaw": 0.0, "yaw_relative": 0.0}, "timestamp": "2023-04-05T14:45:06.843+02:00"}
{"client_id": "abc", "altitude": 221.2, "gps": {"latitude": 49.22729475028795, "longitude": 16.597287415774154}, "aircraft_orientation": {"pitch": 4.1, "roll": 0.2, "yaw": -116.4, "compass": -116.4}, "aircraft_velocity": {"velocity_x": 0.0, "velocity_y": 0.0, "velocity_z": 0.0}, "gimbal_orientation": {"pitch": 0.0, "roll": 0.0, "yaw": 0.0, "yaw_relative": 0.0}, "timestamp": "2023-04-05T14:45:06.843+02:00"}
{"client_id": "abc", "altitude": 221.2, "gps": {"latitude": 49.22729476125715, "longitude": 16.597287462657157}, "aircraft_orientation": {"pitch": 4.1, "roll": 0.2, "yaw": -116.4, "compass": -116.4}, "aircraft_velocity": {"velocity_x": 0.0, "velocity_y": 0.0, "velocity_z": 0.0}, "gimbal_orientation": {"pitch": 0.0, "roll": 0.0, "yaw": 0.0, "yaw_relative": 0.0}, "timestamp": "2023-04-05T14:45:06.843+02:00"}
{"client_id": "abc", "altitude": 221.2, "gps": {"latitude": 49.22729477089428, "longitude": 16.597287509017086}, "aircraft_orientation": {"pitch": 4.1, "roll": 0.2, "yaw": -116.4, "compass": -116.4}, "aircraft_velocity": {"velocity_x": 0.0, "velocity_y": 0.0, "velocity_z": 0.0}, "gimbal_orientation": {"pitch": 0.0, "roll": 0.0, "yaw": 0.0, "yaw_relative": 0.0}, "timestamp": "2023-04-05T14:45:06.843+02:00"}
{"client_id": "abc", "altitude": 221.2, "gps": {"latitude": 49.22729479438947, "longitude": 16.597287562852518}, "aircraft_orientation": {"pitch": 4.1, "roll": 0.2, "yaw": -116.4, "compass": -116.4}, "aircraft_velocity": {"velocity_x": 0.0, "velocity_y": 0.0, "velocity_z": 0.0}, "gimbal_orientation": {"pitch": 0.0, "roll": 0.0, "yaw": 0.0, "yaw_relative": 0.0}, "timestamp": "2023-04-05T14:45:06.843+02:00"}
{"client_id": "abc", "altitude": 221.2, "gps": {"latitude": 49.227294824935825, "longitude": 16.597287613629863}, "aircraft_orientation": {"pitch": 4.1, "roll": 0.2, "yaw": -116.4, "compass": -116.4}, "aircraft_velocity": {"velocity_x": 0.0, "velocity_y": 0.0, "velocity_z": 0.0}, "gimbal_orientation": {"pitch": 0.0, "roll": 0.0, "yaw": 0.0, "yaw_relative": 0.0}, "timestamp": "2023-04-05T14:45:06.843+02:00"}
{"client_id": "abc", "altitude": 221.2, "gps": {"latitude": 49.227294844806096, "longitude": 16.59728767114648}, "aircraft_orientation": {"pitch": 4.1, "roll": 0.2, "yaw": -116.4, "compass": -116.4}, "aircraft_velocity": {"velocity_x": 0.0, "velocity_y": 0.0, "velocity_z": 0.0}, "gimbal_orientation": {"pitch": 0.0, "roll": 0.0, "yaw": 0.0, "yaw_relative": 0.0}, "timestamp": "2023-04-05T14:45:06.843+02:00"}
{"client_id": "abc", "altitude": 221.2, "gps": {"latitude": 49.22729485953374, "longitude": 16.5972877246966}, "aircraft_orientation": {"pitch": 4.1, "roll": 0.2, "yaw": -116.4, "compass": -116.4}, "aircraft_velocity": {"velocity_x": 0.0, "velocity_y": 0.0, "velocity_z": 0.0}, "gimbal_orientation": {"pitch": 0.0, "roll": 0.0, "yaw": 0.0, "yaw_relative": 0.0}, "timestamp": "2023-04-05T14:45:06.843+02:00"}
{"client_id": "abc", "altitude": 221.2, "gps": {"latitude": 49.22729486222068, "longitude": 16.597287783934924}, "aircraft_orientation": {"pitch": 4.1, "roll": 0.2, "yaw": -116.4, "compass": -116.4}, "aircraft_velocity": {"velocity_x": 0.0, "velocity_y": 0.0, "velocity_z": 0.0}, "gimbal_orientation": {"pitch": 0.0, "roll": 0.0, "yaw": 0.0, "yaw_relative": 0.0}, "timestamp": "2023-04-05T14:45:06.843+02:00"}
{"client_id": "abc", "altitude": 221.2, "gps": {"latitude": 49.22729486608335, "longitude": 16.597287839147725}, "aircraft_orientation": {"pitch": 4.1, "roll": 0.2, "yaw": -116.4, "compass": -116.4}, "aircraft_velocity": {"velocity_x": 0.0, "velocity_y": 0.0, "velocity_z": 0.0}, "gimbal_orientation": {"pitch": 0.0, "roll": 0.0, "yaw": 0.0, "yaw_relative": 0.0}, "timestamp": "2023-04-05T14:45:06.843+02:00"}
{"client_id": "abc", "altitude": 221.2, "gps": {"latitude": 49.22729488454013, "longitude": 16.597287898131892}, "aircraft_orientation": {"pitch": 4.1, "roll": 0.2, "yaw": -116.4, "compass": -116.4}, "aircraft_velocity": {"velocity_x": 0.0, "velocity_y": 0.0, "velocity_z": 0.0}, "gimbal_orientation": {"pitch": 0.0, "roll": 0.0, "yaw": 0.0, "yaw_relative": 0.0}, "timestamp": "2023-04-05T14:45:06.843+02:00"}
{"client_id": "abc", "altitude": 221.2, "gps": {"latitude": 49.22729491259171, "longitude": 16.59728795355622}, "aircraft_orientation": {"pitch": 4.1, "roll": 0.2, "yaw": -116.4, "compass": -116.4}, "aircraft_velocity": {"velocity_x": 0.0, "velocity_y": 0.0, "velocity_z": 0.0}, "gimbal_orientation": {"pitch": 0.0, "roll": 0.0, "yaw": 0.0, "yaw_relative": 0.0}, "timestamp": "2023-04-05T14:45:06.843+02:00"}
{"client_id": "abc", "altitude": 221.2, "gps": {"latitude": 49.22729490685633, "longitude": 16.59728801077604}, "aircraft_orientation": {"pitch": 4.1, "roll": 0.2, "yaw": -116.4, "compass": -116.4}, "aircraft_velocity": {"velocity_x": 0.0, "velocity_y": 0.0, "velocity_z": 0.0}, "gimbal_orientation": {"pitch": 0.0, "roll": 0.0, "yaw": 0.0, "yaw_relative": 0.0}, "timestamp": "2023-04-05T14:45:06.843+02:00"}
{"client_id": "abc", "altitude": 221.2, "gps": {"latitude": 49.227294891715054, "longitude": 16.597288064829556}, "aircraft_orientation": {"pitch": 4.1, "roll": 0.2, "yaw": -116.4, "compass": -116.4}, "aircraft_velocity": {"velocity_x": 0.0, "velocity_y": 0.0, "velocity_z": 0.0}, "gimbal_orientation": {"pitch": 0.0, "roll": 0.0, "yaw": 0.0, "yaw_relative": 0.0}, "timestamp": "2023-04-05T14:45:06.843+02:00"}
{"client_id": "abc", "altitude": 221.2, "gps": {"latitude": 49.227294891887674, "longitude": 16.597288094013372}, "aircraft_orientation": {"pitch": 4.1, "roll": 0.2, "yaw": -116.4, "compass": -116.4}, "aircraft_velocity": {"velocity_x": 0.0, "velocity_y": 0.0, "velocity_z": 0.0}, "gimbal_orientation": {"pitch": 0.0, "roll": 0.0, "yaw": 0.0, "yaw_relative": 0.0}, "timestamp": "2023-04-05T14:45:06.843+02:00"}
{"client_id": "abc", "altitude": 221.2, "gps": {"latitude": 49.22729490840009, "longitude": 16.597288117463073}, "aircraft_orientation": {"pitch": 4.1, "roll": 0.2, "yaw": -116.4, "compass": -116.4}, "aircraft_velocity": {"velocity_x": 0.0, "velocity_y": 0.0, "velocity_z": 0.0}, "gimbal_orientation": {"pitch": 0.0, "roll": 0.0, "yaw": 0.0, "yaw_relative": 0.0}, "timestamp": "2023-04-05T14:45:06.843+02:00"}
{"client_id": "abc", "altitude": 221.2, "gps": {"latitude": 49.22729491848993, "longitude": 16.597288142142563}, "aircraft_orientation": {"pitch": 4.1, "roll": 0.2, "yaw": -116.4, "compass": -116.4}, "aircraft_velocity": {"velocity_x": 0.0, "velocity_y": 0.0, "velocity_z": 0.0}, "gimbal_orientation": {"pitch": 0.0, "roll": 0.0, "yaw": 0.0, "yaw_relative": 0.0}, "timestamp": "2023-04-05T14:45:06.843+02:00"}
{"client_id": "abc", "altitude": 221.2, "gps": {"latitude": 49.22729492642371, "longitude": 16.597288176299664}, "aircraft_orientation": {"pitch": 4.1, "roll": 0.2, "yaw": -116.4, "compass": -116.4}, "aircraft_velocity": {"velocity_x": 0.0, "velocity_y": 0.0, "velocity_z": 0.0}, "gimbal_orientation": {"pitch": 0.0, "roll": 0.0, "yaw": 0.0, "yaw_relative": 0.0}, "timestamp": "2023-04-05T14:45:06.843+02:00"}
{"client_id": "abc", "altitude": 221.2, "gps": {"latitude": 49.227294926710314, "longitude": 16.59728821350993}, "aircraft_orientation": {"pitch": 4.1, "roll": 0.2, "yaw": -116.4, "compass": -116.4}, "aircraft_velocity": {"velocity_x": 0.0, "velocity_y": 0.0, "velocity_z": 0.0}, "gimbal_orientation": {"pitch": 0.0, "roll": 0.0, "yaw": 0.0, "yaw_relative": 0.0}, "timestamp": "2023-04-05T14:45:06.843+02:00"}
{"client_id": "abc", "altitude": 221.2, "gps": {"latitude": 49.22729492791862, "longitude": 16.597288254780157}, "aircraft_orientation": {"pitch": 4.1, "roll": 0.2, "yaw": -116.4, "compass": -116.4}, "aircraft_velocity": {"velocity_x": 0.0, "velocity_y": 0.0, "velocity_z": 0.0}, "gimbal_orientation": {"pitch": 0.0, "roll": 0.0, "yaw": 0.0, "yaw_relative": 0.0}, "timestamp": "2023-04-05T14:45:06.843+02:00"}
{"client_id": "abc", "altitude": 221.2, "gps": {"latitude": 49.22729492265875, "longitude": 16.597288300533386}, "aircraft_orientation": {"pitch": 4.1, "roll": 0.2, "yaw": -116.4, "compass": -116.4}, "aircraft_velocity": {"velocity_x": 0.0, "velocity_y": 0.0, "velocity_z": 0.0}, "gimbal_orientation": {"pitch": 0.0, "roll": 0.0, "yaw": 0.0, "yaw_relative": 0.0}, "timestamp": "2023-04-05T14:45:06.843+02:00"}
{"client_id": "abc", "altitude": 221.2, "gps": {"latitude": 49.2272949203659, "longitude": 16.597288346804767}, "aircraft_orientation": {"pitch": 4.1, "roll": 0.2, "yaw": -116.4, "compass": -116.4}, "aircraft_velocity": {"velocity_x": 0.0, "velocity_y": 0.0, "velocity_z": 0.0}, "gimbal_orientation": {"pitch": 0.0, "roll": 0.0, "yaw": 0.0, "yaw_relative": 0.0}, "timestamp": "2023-04-05T14:45:06.843+02:00"}
{"client_id": "abc", "altitude": 221.2, "gps": {"latitude": 49.22729491333754, "longitude": 16.5972883967229}, "aircraft_orientation": {"pitch": 4.1, "roll": 0.2, "yaw": -116.4, "compass": -116.4}, "aircraft_velocity": {"velocity_x": 0.0, "velocity_y": 0.0, "velocity_z": 0.0}, "gimbal_orientation": {"pitch": 0.0, "roll": 0.0, "yaw": 0.0, "yaw_relative": 0.0}, "timestamp": "2023-04-05T14:45:06.843+02:00"}
{"client_id": "abc", "altitude": 221.2, "gps": {"latitude": 49.22729490969308, "longitude": 16.59728844538664}, "aircraft_orientation": {"pitch": 4.1, "roll": 0.2, "yaw": -116.4, "compass": -116.4}, "aircraft_velocity": {"velocity_x": 0.0, "velocity_y": 0.0, "velocity_z": 0.0}, "gimbal_orientation": {"pitch": 0.0, "roll": 0.0, "yaw": 0.0, "yaw_relative": 0.0}, "timestamp": "2023-04-05T14:45:06.843+02:00"}
{"client_id": "abc", "altitude": 221.2, "gps": {"latitude": 49.22729492778509, "longitude": 16.597288497831588}, "aircraft_orientation": {"pitch": 4.1, "roll": 0.2, "yaw": -116.4, "compass": -116.4}, "aircraft_velocity": {"velocity_x": 0.0, "velocity_y": 0.0, "velocity_z": 0.0}, "gimbal_orientation": {"pitch": 0.0, "roll": 0.0, "yaw": 0.0, "yaw_relative": 0.0}, "timestamp": "2023-04-05T14:45:06.843+02:00"}
{"client_id": "abc", "altitude": 221.2, "gps": {"latitude": 49.22729495383694, "longitude": 16.59728854884997}, "aircraft_orientation": {"pitch": 4.1, "roll": 0.2, "yaw": -116.4, "compass": -116.4}, "aircraft_velocity": {"velocity_x": 0.0, "velocity_y": 0.0, "velocity_z": 0.0}, "gimbal_orientation": {"pitch": 0.0, "roll": 0.0, "yaw": 0.0, "yaw_relative": 0.0}, "timestamp": "2023-04-05T14:45:06.843+02:00"}
{"client_id": "abc", "altitude": 221.2, "gps": {"latitude": 49.227294952166154, "longitude": 16.59728860338557}, "aircraft_orientation": {"pitch": 4.1, "roll": 0.2, "yaw": -116.4, "compass": -116.4}, "aircraft_velocity": {"velocity_x": 0.0, "velocity_y": 0.0, "velocity_z": 0.0}, "gimbal_orientation": {"pitch": 0.0, "roll": 0.0, "yaw": 0.0, "yaw_relative": 0.0}, "timestamp": "2023-04-05T14:45:06.843+02:00"}
{"client_id": "abc", "altitude": 221.2, "gps": {"latitude": 49.22729493795635, "longitude": 16.597288655897742}, "aircraft_orientation": {"pitch": 4.1, "roll": 0.2, "yaw": -116.4, "compass": -116.4}, "aircraft_velocity": {"velocity_x": 0.0, "velocity_y": 0.0, "velocity_z": 0.0}, "gimbal_orientation": {"pitch": 0.0, "roll": 0.0, "yaw": 0.0, "yaw_relative": 0.0}, "timestamp": "2023-04-05T14:45:06.843+02:00"}
{"client_id": "abc", "altitude": 221.2, "gps": {"latitude": 49.227294945228984, "longitude": 16.597288711535235}, "aircraft_orientation": {"pitch": 4.1, "roll": 0.2, "yaw": -116.4, "compass": -116.4}, "aircraft_velocity": {"velocity_x": 0.0, "velocity_y": 0.0, "velocity_z": 0.0}, "gimbal_orientation": {"pitch": 0.0, "roll": 0.0, "yaw": 0.0, "yaw_relative": 0.0}, "timestamp": "2023-04-05T14:45:06.843+02:00"}
{"client_id": "abc", "altitude": 221.2, "gps": {"latitude": 49.227294963907234, "longitude": 16.59728876475249}, "aircraft_orientation": {"pitch": 4.1, "roll": 0.2, "yaw": -116.4, "compass": -116.4}, "aircraft_velocity": {"velocity_x": 0.0, "velocity_y": 0.0, "velocity_z": 0.0}, "gimbal_orientation": {"pitch": 0.0, "roll": 0.0, "yaw": 0.0, "yaw_relative": 0.0}, "timestamp": "2023-04-05T14:45:06.843+02:00"}
{"client_id": "abc", "altitude": 221.2, "gps": {"latitude": 49.227294954459005, "longitude": 16.59728879294591}, "aircraft_orientation": {"pitch": 4.1, "roll": 0.2, "yaw": -116.4, "compass": -116.4}, "aircraft_velocity": {"velocity_x": 0.0, "velocity_y": 0.0, "velocity_z": 0.0}, "gimbal_orientation": {"pitch": 0.0, "roll": 0.0, "yaw": 0.0, "yaw_relative": 0.0}, "timestamp": "2023-04-05T14:45:06.843+02:00"}
{"client_id": "abc", "altitude": 221.2, "gps": {"latitude": 49.22729488632816, "longitude": 16.597288837416876}, "aircraft_orientation": {"pitch": 4.1, "roll": 0.2, "yaw": -116.4, "compass": -116.4}, "aircraft_velocity": {"velocity_x": 0.0, "velocity_y": 0.0, "velocity_z": 0.0}, "gimbal_orientation": {"pitch": 0.0, "roll": 0.0, "yaw": 0.0, "yaw_relative": 0.0}, "timestamp": "2023-04-05T14:45:06.843+02:00"}
{"client_id": "abc", "altitude": 221.2, "gps": {"latitude": 49.22729484252953, "longitude": 16.597288870385178}, "aircraft_orientation": {"pitch": 4.1, "roll": 0.2, "yaw": -116.4, "compass": -116.4}, "aircraft_velocity": {"velocity_x": 0.0, "velocity_y": 0.0, "velocity_z": 0.0}, "gimbal_orientation": {"pitch": 0.0, "roll": 0.0, "yaw": 0.0, "yaw_relative": 0.0}, "timestamp": "2023-04-05T14:45:06.843+02:00"}
{"client_id": "abc", "altitude": 221.2, "gps": {"latitude": 49.22729482444729, "longitude": 16.59728890773154}, "aircraft_orientation": {"pitch": 4.1, "roll": 0.2, "yaw": -116.4, "compass": -116.4}, "aircraft_velocity": {"velocity_x": 0.0, "velocity_y": 0.0, "velocity_z": 0.0}, "gimbal_orientation": {"pitch": 0.0, "roll": 0.0, "yaw": 0.0, "yaw_relative": 0.0}, "timestamp": "2023-04-05T14:45:06.843+02:00"}
{"client_id": "abc", "altitude": 221.2, "gps": {"latitude": 49.22729482748271, "longitude": 16.59728894944449}, "aircraft_orientation": {"pitch": 4.1, "roll": 0.2, "yaw": -116.4, "compass": -116.4}, "aircraft_velocity": {"velocity_x": 0.0, "velocity_y": 0.0, "velocity_z": 0.0}, "gimbal_orientation": {"pitch": 0.0, "roll": 0.0, "yaw": 0.0, "yaw_relative": 0.0}, "timestamp": "2023-04-05T14:45:06.843+02:00"}
{"client_id": "abc", "altitude": 221.2, "gps": {"latitude": 49.227294809667534, "longitude": 16.597288996661995}, "aircraft_orientation": {"pitch": 4.1, "roll": 0.2, "yaw": -116.4, "compass": -116.4}, "aircraft_velocity": {"velocity_x": 0.0, "velocity_y": 0.0, "velocity_z": 0.0}, "gimbal_orientation": {"pitch": 0.0, "roll": 0.0, "yaw": 0.0, "yaw_relative": 0.0}, "timestamp": "2023-04-05T14:45:06.843+02:00"}
{"client_id": "abc", "altitude": 221.2, "gps": {"latitude": 49.227294784254035, "longitude": 16.597289044440284}, "aircraft_orientation": {"pitch": 4.1, "roll": 0.2, "yaw": -116.4, "compass": -116.4}, "aircraft_velocity": {"velocity_x": 0.0, "velocity_y": 0.0, "velocity_z": 0.0}, "gimbal_orientation": {"pitch": 0.0, "roll": 0.0, "yaw": 0.0, "yaw_relative": 0.0}, "timestamp": "2023-04-05T14:45:06.843+02:00"}
{"client_id": "abc", "altitude": 221.2, "gps": {"latitude": 49.227294711345344, "longitude": 16.597289122263245}, "aircraft_orientation": {"pitch": 4.1, "roll": 0.2, "yaw": -116.4, "compass": -116.4}, "aircraft_velocity": {"velocity_x": 0.0, "velocity_y": 0.0, "velocity_z": 0.0}, "gimbal_orientation": {"pitch": 0.0, "roll": 0.0, "yaw": 0.0, "yaw_relative": 0.0}, "timestamp": "2023-04-05T14:45:06.843+02:00"}
{"client_id": "abc", "altitude": 221.2, "gps": {"latitude": 49.22729463497783, "longitude": 16.59728920298688}, "aircraft_orientation": {"pitch": 4.1, "roll": 0.2, "yaw": -116.9, "compass": -116.9}, "aircraft_velocity": {"velocity_x": 0.0, "velocity_y": 0.0, "velocity_z": 0.0}, "gimbal_orientation": {"pitch": 0.0, "roll": 0.0, "yaw": 0.0, "yaw_relative": 0.0}, "timestamp": "2023-04-05T14:45:06.843+02:00"}
{"client_id": "abc", "altitude": 221.2, "gps": {"latitude": 49.227294513769486, "longitude": 16.597289288090217}, "aircraft_orientation": {"pitch": 4.0, "roll": 0.3, "yaw": -117.0, "compass": -117.0}, "aircraft_velocity": {"velocity_x": 0.0, "velocity_y": 0.0, "velocity_z": 0.0}, "gimbal_orientation": {"pitch": 0.0, "roll": 0.0, "yaw": 0.0, "yaw_relative": 0.0}, "timestamp": "2023-04-05T14:45:06.843+02:00"}
{"client_id": "abc", "altitude": 221.2, "gps": {"latitude": 49.22729440964352, "longitude": 16.597289360472573}, "aircraft_orientation": {"pitch": 4.0, "roll": 0.3, "yaw": -117.0, "compass": -117.0}, "aircraft_velocity": {"velocity_x": 0.0, "velocity_y": 0.0, "velocity_z": 0.0}, "gimbal_orientation": {"pitch": 0.0, "roll": 0.0, "yaw": 0.0, "yaw_relative": 0.0}, "timestamp": "2023-04-05T14:45:06.843+02:00"}
{"client_id": "abc", "altitude": 221.2, "gps": {"latitude": 49.22729429305019, "longitude": 16.597289433197634}, "aircraft_orientation": {"pitch": 4.0, "roll": 0.2, "yaw": -117.0, "compass": -117.0}, "aircraft_velocity": {"velocity_x": 0.0, "velocity_y": 0.0, "velocity_z": 0.0}, "gimbal_orientation": {"pitch": 0.0, "roll": 0.0, "yaw": 0.0, "yaw_relative": 0.0}, "timestamp": "2023-04-05T14:45:06.843+02:00"}
{"client_id": "abc", "altitude": 221.2, "gps": {"latitude": 49.22729420282136, "longitude": 16.59728949882104}, "aircraft_orientation": {"pitch": 4.0, "roll": 0.2, "yaw": -117.0, "compass": -117.0}, "aircraft_velocity": {"velocity_x": 0.0, "velocity_y": 0.0, "velocity_z": 0.0}, "gimbal_orientation": {"pitch": 0.0, "roll": 0.0, "yaw": 0.0, "yaw_relative": 0.0}, "timestamp": "2023-04-05T14:45:06.843+02:00"}
{"client_id": "abc", "altitude": 221.2, "gps": {"latitude": 49.2272940838505, "longitude": 16.597289560755076}, "aircraft_orientation": {"pitch": 4.0, "roll": 0.2, "yaw": -117.0, "compass": -117.0}, "aircraft_velocity": {"velocity_x": 0.0, "velocity_y": 0.0, "velocity_z": 0.0}, "gimbal_orientation": {"pitch": 0.0, "roll": 0.0, "yaw": 0.0, "yaw_relative": 0.0}, "timestamp": "2023-04-05T14:45:06.843+02:00"}
{"client_id": "abc", "altitude": 221.2, "gps": {"latitude": 49.227293977057144, "longitude": 16.597289619727764}, "aircraft_orientation": {"pitch": 4.0, "roll": 0.3, "yaw": -117.0, "compass": -117.0}, "aircraft_velocity": {"velocity_x": 0.0, "velocity_y": 0.0, "velocity_z": 0.0}, "gimbal_orientation": {"pitch": 0.0, "roll": 0.0, "yaw": 0.0, "yaw_relative": 0.0}, "timestamp": "2023-04-05T14:45:06.843+02:00"}
{"client_id": "abc", "altitude": 221.2, "gps": {"latitude": 49.22729382215955, "longitude": 16.597289698795272}, "aircraft_orientation": {"pitch": 4.0, "roll": 0.2, "yaw": -117.0, "compass": -117.0}, "aircraft_velocity": {"velocity_x": 0.0, "velocity_y": 0.0, "velocity_z": 0.0}, "gimbal_orientation": {"pitch": 0.0, "roll": 0.0, "yaw": 0.0, "yaw_relative": 0.0}, "timestamp": "2023-04-05T14:45:06.843+02:00"}
{"client_id": "abc", "altitude": 221.2, "gps": {"latitude": 49.227293677260604, "longitude": 16.597289782304802}, "aircraft_orientation": {"pitch": 4.0, "roll": 0.3, "yaw": -117.0, "compass": -117.0}, "aircraft_velocity": {"velocity_x": 0.0, "velocity_y": 0.0, "velocity_z": 0.0}, "gimbal_orientation": {"pitch": 0.0, "roll": 0.0, "yaw": 0.0, "yaw_relative": 0.0}, "timestamp": "2023-04-05T14:45:06.843+02:00"}
{"client_id": "abc", "altitude": 221.2, "gps": {"latitude": 49.227293541376724, "longitude": 16.59728986055573}, "aircraft_orientation": {"pitch": 4.0, "roll": 0.3, "yaw": -117.0, "compass": -117.0}, "aircraft_velocity": {"velocity_x": 0.0, "velocity_y": 0.0, "velocity_z": 0.0}, "gimbal_orientation": {"pitch": 0.0, "roll": 0.0, "yaw": 0.0, "yaw_relative": 0.0}, "timestamp": "2023-04-05T14:45:06.843+02:00"}
{"client_id": "abc", "altitude": 221.2, "gps": {"latitude": 49.227293321781055, "longitude": 16.597289989869317}, "aircraft_orientation": {"pitch": 4.0, "roll": 0.2, "yaw": -117.0, "compass": -117.0}, "aircraft_velocity": {"velocity_x": 0.0, "velocity_y": 0.0, "velocity_z": 0.0}, "gimbal_orientation": {"pitch": 0.0, "roll": 0.0, "yaw": 0.0, "yaw_relative": 0.0}, "timestamp": "2023-04-05T14:45:06.843+02:00"}
{"client_id": "abc", "altitude": 221.2, "gps": {"latitude": 49.227293214776, "longitude": 16.597290047415445}, "aircraft_orientation": {"pitch": 4.0, "roll": 0.2, "yaw": -117.0, "compass": -117.0}, "aircraft_velocity": {"velocity_x": 0.0, "velocity_y": 0.0, "velocity_z": 0.0}, "gimbal_orientation": {"pitch": 0.0, "roll": 0.0, "yaw": 0.0, "yaw_relative": 0.0}, "timestamp": "2023-04-05T14:45:06.843+02:00"}
{"client_id": "abc", "altitude": 221.2, "gps": {"latitude": 49.22729310239056, "longitude": 16.597290122322974}, "aircraft_orientation": {"pitch": 4.1, "roll": 0.3, "yaw": -117.0, "compass": -117.0}, "aircraft_velocity": {"velocity_x": 0.0, "velocity_y": 0.0, "velocity_z": 0.0}, "gimbal_orientation": {"pitch": 0.0, "roll": 0.0, "yaw": 0.0, "yaw_relative": 0.0}, "timestamp": "2023-04-05T14:45:06.843+02:00"}
{"client_id": "abc", "altitude": 221.2, "gps": {"latitude": 49.22729299458757, "longitude": 16.597290202961343}, "aircraft_orientation": {"pitch": 4.1, "roll": 0.2, "yaw": -116.9, "compass": -116.9}, "aircraft_velocity": {"velocity_x": 0.0, "velocity_y": 0.0, "velocity_z": 0.0}, "gimbal_orientation": {"pitch": 0.0, "roll": 0.0, "yaw": 0.0, "yaw_relative": 0.0}, "timestamp": "2023-04-05T14:45:06.843+02:00"}
{"client_id": "abc", "altitude": 221.2, "gps": {"latitude": 49.22729288528641, "longitude": 16.597290275537187}, "aircraft_orientation": {"pitch": 4.0, "roll": 0.2, "yaw": -117.0, "compass": -117.0}, "aircraft_velocity": {"velocity_x": 0.0, "velocity_y": 0.0, "velocity_z": 0.0}, "gimbal_orientation": {"pitch": 0.0, "roll": 0.0, "yaw": 0.0, "yaw_relative": 0.0}, "timestamp": "2023-04-05T14:45:06.843+02:00"}
{"client_id": "abc", "altitude": 221.2, "gps": {"latitude": 49.227292780404845, "longitude": 16.597290340057064}, "aircraft_orientation": {"pitch": 4.0, "roll": 0.2, "yaw": -117.0, "compass": -117.0}, "aircraft_velocity": {"velocity_x": 0.0, "velocity_y": 0.0, "velocity_z": 0.0}, "gimbal_orientation": {"pitch": 0.0, "roll": 0.0, "yaw": 0.0, "yaw_relative": 0.0}, "timestamp": "2023-04-05T14:45:06.843+02:00"}
{"client_id": "abc", "altitude": 221.2, "gps": {"latitude": 49.22729267159873, "longitude": 16.59729039668331}, "aircraft_orientation": {"pitch": 4.0, "roll": 0.2, "yaw": -117.0, "compass": -117.0}, "aircraft_velocity": {"velocity_x": 0.0, "velocity_y": 0.0, "velocity_z": 0.0}, "gimbal_orientation": {"pitch": 0.0, "roll": 0.0, "yaw": 0.0, "yaw_relative": 0.0}, "timestamp": "2023-04-05T14:45:06.843+02:00"}
{"client_id": "abc", "altitude": 221.2, "gps": {"latitude": 49.227292565652164, "longitude": 16.597290452065003}, "aircraft_orientation": {"pitch": 4.0, "roll": 0.2, "yaw": -117.0, "compass": -117.0}, "aircraft_velocity": {"velocity_x": 0.0, "velocity_y": 0.0, "velocity_z": 0.0}, "gimbal_orientation": {"pitch": 0.0, "roll": 0.0, "yaw": 0.0, "yaw_relative": 0.0}, "timestamp": "2023-04-05T14:45:06.843+02:00"}
{"client_id": "abc", "altitude": 221.2, "gps": {"latitude": 49.22729248488134, "longitude": 16.597290524629365}, "aircraft_orientation": {"pitch": 4.0, "roll": 0.2, "yaw": -116.9, "compass": -116.9}, "aircraft_velocity": {"velocity_x": 0.0, "velocity_y": 0.0, "velocity_z": 0.0}, "gimbal_orientation": {"pitch": 0.0, "roll": 0.0, "yaw": 0.0, "yaw_relative": 0.0}, "timestamp": "2023-04-05T14:45:06.843+02:00"}
{"client_id": "abc", "altitude": 221.2, "gps": {"latitude": 49.227292410445166, "longitude": 16.597290603342696}, "aircraft_orientation": {"pitch": 4.0, "roll": 0.3, "yaw": -117.1, "compass": -117.1}, "aircraft_velocity": {"velocity_x": 0.0, "velocity_y": 0.0, "velocity_z": 0.0}, "gimbal_orientation": {"pitch": 0.0, "roll": 0.0, "yaw": 0.0, "yaw_relative": 0.0}, "timestamp": "2023-04-05T14:45:06.843+02:00"}
{"client_id": "abc", "altitude": 221.2, "gps": {"latitude": 49.2272923346411, "longitude": 16.597290675310205}, "aircraft_orientation": {"pitch": 4.0, "roll": 0.3, "yaw": -117.2, "compass": -117.2}, "aircraft_velocity": {"velocity_x": 0.0, "velocity_y": 0.0, "velocity_z": 0.0}, "gimbal_orientation": {"pitch": 0.0, "roll": 0.0, "yaw": 0.0, "yaw_relative": 0.0}, "timestamp": "2023-04-05T14:45:06.843+02:00"}
{"client_id": "abc", "altitude": 221.2, "gps": {"latitude": 49.22729225051243, "longitude": 16.597290740328557}, "aircraft_orientation": {"pitch": 4.0, "roll": 0.2, "yaw": -117.3, "compass": -117.3}, "aircraft_velocity": {"velocity_x": 0.0, "velocity_y": 0.0, "velocity_z": 0.0}, "gimbal_orientation": {"pitch": 0.0, "roll": 0.0, "yaw": 0.0, "yaw_relative": 0.0}, "timestamp": "2023-04-05T14:45:06.843+02:00"}
{"client_id": "abc", "altitude": 221.2, "gps": {"latitude": 49.22729218895073, "longitude": 16.597290796744915}, "aircraft_orientation": {"pitch": 3.9, "roll": 0.2, "yaw": -117.3, "compass": -117.3}, "aircraft_velocity": {"velocity_x": 0.0, "velocity_y": 0.0, "velocity_z": 0.0}, "gimbal_orientation": {"pitch": 0.0, "roll": 0.0, "yaw": 0.0, "yaw_relative": 0.0}, "timestamp": "2023-04-05T14:45:06.843+02:00"}
{"client_id": "abc", "altitude": 221.2, "gps": {"latitude": 49.227292126701826, "longitude": 16.597290850572147}, "aircraft_orientation": {"pitch": 3.9, "roll": 0.3, "yaw": -117.2, "compass": -117.2}, "aircraft_velocity": {"velocity_x": 0.0, "velocity_y": 0.0, "velocity_z": 0.0}, "gimbal_orientation": {"pitch": 0.0, "roll": 0.0, "yaw": 0.0, "yaw_relative": 0.0}, "timestamp": "2023-04-05T14:45:06.843+02:00"}
{"client_id": "abc", "altitude": 221.2, "gps": {"latitude": 49.22729205979558, "longitude": 16.597290898217622}, "aircraft_orientation": {"pitch": 3.1, "roll": 0.2, "yaw": -117.5, "compass": -117.5}, "aircraft_velocity": {"velocity_x": 0.0, "velocity_y": 0.0, "velocity_z": 0.0}, "gimbal_orientation": {"pitch": 0.0, "roll": 0.0, "yaw": 0.0, "yaw_relative": 0.0}, "timestamp": "2023-04-05T14:45:06.843+02:00"}
{"client_id": "abc", "altitude": 221.2, "gps": {"latitude": 49.227291983838434, "longitude": 16.597290948360396}, "aircraft_orientation": {"pitch": -0.6, "roll": 0.0, "yaw": -117.8, "compass": -117.8}, "aircraft_velocity": {"velocity_x": 0.0, "velocity_y": 0.0, "velocity_z": 0.0}, "gimbal_orientation": {"pitch": 0.0, "roll": 0.0, "yaw": 0.0, "yaw_relative": 0.0}, "timestamp": "2023-04-05T14:45:06.843+02:00"}
{"client_id": "abc", "altitude": 221.2, "gps": {"latitude": 49.22729189736806, "longitude": 16.5972909898733}, "aircraft_orientation": {"pitch": -2.8, "roll": -0.8, "yaw": -117.8, "compass": -117.8}, "aircraft_velocity": {"velocity_x": 0.0, "velocity_y": 0.0, "velocity_z": -0.2}, "gimbal_orientation": {"pitch": 0.0, "roll": 0.0, "yaw": 0.0, "yaw_relative": 0.0}, "timestamp": "2023-04-05T14:45:06.843+02:00"}
{"client_id": "abc", "altitude": 221.2, "gps": {"latitude": 49.22729177536504, "longitude": 16.597290977880355}, "aircraft_orientation": {"pitch": -1.7, "roll": -0.3, "yaw": -117.6, "compass": -117.6}, "aircraft_velocity": {"velocity_x": 0.0, "velocity_y": 0.0, "velocity_z": -0.3}, "gimbal_orientation": {"pitch": 0.0, "roll": 0.0, "yaw": 0.0, "yaw_relative": 0.0}, "timestamp": "2023-04-05T14:45:06.843+02:00"}
{"client_id": "abc", "altitude": 221.2, "gps": {"latitude": 49.22729161638982, "longitude": 16.597290892088335}, "aircraft_orientation": {"pitch": 0.0, "roll": 0.0, "yaw": -117.2, "compass": -117.2}, "aircraft_velocity": {"velocity_x": 0.0, "velocity_y": -0.1, "velocity_z": -0.3}, "gimbal_orientation": {"pitch": 0.0, "roll": 0.0, "yaw": 0.0, "yaw_relative": 0.0}, "timestamp": "2023-04-05T14:45:06.843+02:00"}
{"client_id": "abc", "altitude": 221.2, "gps": {"latitude": 49.22729144253062, "longitude": 16.5972907717342}, "aircraft_orientation": {"pitch": 1.5, "roll": 0.5, "yaw": -117.1, "compass": -117.1}, "aircraft_velocity": {"velocity_x": -0.1, "velocity_y": -0.1, "velocity_z": -0.3}, "gimbal_orientation": {"pitch": 0.0, "roll": 0.0, "yaw": 0.0, "yaw_relative": 0.0}, "timestamp": "2023-04-05T14:45:06.843+02:00"}
{"client_id": "abc", "altitude": 221.29999999999998, "gps": {"latitude": 49.227291317153465, "longitude": 16.597290642592778}, "aircraft_orientation": {"pitch": 1.8, "roll": 0.6, "yaw": -117.0, "compass": -117.0}, "aircraft_velocity": {"velocity_x": -0.1, "velocity_y": -0.2, "velocity_z": -0.4}, "gimbal_orientation": {"pitch": 0.0, "roll": 0.0, "yaw": 0.0, "yaw_relative": 0.0}, "timestamp": "2023-04-05T14:45:06.843+02:00"}
{"client_id": "abc", "altitude": 221.29999999999998, "gps": {"latitude": 49.227291219029944, "longitude": 16.5972905297945}, "aircraft_orientation": {"pitch": 2.2, "roll": 0.8, "yaw": -117.0, "compass": -117.0}, "aircraft_velocity": {"velocity_x": 0.0, "velocity_y": -0.1, "velocity_z": -0.4}, "gimbal_orientation": {"pitch": 0.0, "roll": 0.0, "yaw": 0.0, "yaw_relative": 0.0}, "timestamp": "2023-04-05T14:45:06.843+02:00"}
{"client_id": "abc", "altitude": 221.39999999999998, "gps": {"latitude": 49.227291231764376, "longitude": 16.597290424043752}, "aircraft_orientation": {"pitch": 2.3, "roll": 0.3, "yaw": -116.9, "compass": -116.9}, "aircraft_velocity": {"velocity_x": 0.0, "velocity_y": -0.1, "velocity_z": -0.4}, "gimbal_orientation": {"pitch": 0.0, "roll": 0.0, "yaw": 0.0, "yaw_relative": 0.0}, "timestamp": "2023-04-05T14:45:06.843+02:00"}
{"client_id": "abc", "altitude": 221.39999999999998, "gps": {"latitude": 49.22729126251591, "longitude": 16.597290337671268}, "aircraft_orientation": {"pitch": 2.4, "roll": -0.3, "yaw": -116.9, "compass": -116.9}, "aircraft_velocity": {"velocity_x": 0.0, "velocity_y": -0.1, "velocity_z": -0.3}, "gimbal_orientation": {"pitch": 0.0, "roll": 0.0, "yaw": 0.0, "yaw_relative": 0.0}, "timestamp": "2023-04-05T14:45:06.843+02:00"}
{"client_id": "abc", "altitude": 221.39999999999998, "gps": {"latitude": 49.22729126765528, "longitude": 16.597290274784555}, "aircraft_orientation": {"pitch": 1.8, "roll": -0.7, "yaw": -116.9, "compass": -116.9}, "aircraft_velocity": {"velocity_x": 0.0, "velocity_y": 0.0, "velocity_z": -0.3}, "gimbal_orientation": {"pitch": 0.0, "roll": 0.0, "yaw": 0.0, "yaw_relative": 0.0}, "timestamp": "2023-04-05T14:45:06.843+02:00"}
{"client_id": "abc", "altitude": 221.5, "gps": {"latitude": 49.22729123042905, "longitude": 16.597290229667536}, "aircraft_orientation": {"pitch": 1.8, "roll": -0.4, "yaw": -117.0, "compass": -117.0}, "aircraft_velocity": {"velocity_x": 0.0, "velocity_y": 0.0, "velocity_z": -0.3}, "gimbal_orientation": {"pitch": 0.0, "roll": 0.0, "yaw": 0.0, "yaw_relative": 0.0}, "timestamp": "2023-04-05T14:45:06.843+02:00"}
{"client_id": "abc", "altitude": 221.5, "gps": {"latitude": 49.22729117571333, "longitude": 16.59729020356149}, "aircraft_orientation": {"pitch": 1.5, "roll": -0.8, "yaw": -117.0, "compass": -117.0}, "aircraft_velocity": {"velocity_x": 0.0, "velocity_y": 0.0, "velocity_z": -0.3}, "gimbal_orientation": {"pitch": 0.0, "roll": 0.0, "yaw": 0.0, "yaw_relative": 0.0}, "timestamp": "2023-04-05T14:45:06.843+02:00"}
{"client_id": "abc", "altitude": 221.5, "gps": {"latitude": 49.22729111380966, "longitude": 16.597290185052277}, "aircraft_orientation": {"pitch": 1.4, "roll": -0.9, "yaw": -117.0, "compass": -117.0}, "aircraft_velocity": {"velocity_x": 0.0, "velocity_y": 0.0, "velocity_z": -0.3}, "gimbal_orientation": {"pitch": 0.0, "roll": 0.0, "yaw": 0.0, "yaw_relative": 0.0}, "timestamp": "2023-04-05T14:45:06.843+02:00"}
{"client_id": "abc", "altitude": 221.6, "gps": {"latitude": 49.22729095774936, "longitude": 16.59729013331733}, "aircraft_orientation": {"pitch": 1.1, "roll": -1.1, "yaw": -116.9, "compass": -116.9}, "aircraft_velocity": {"velocity_x": 0.0, "velocity_y": 0.0, "velocity_z": -0.3}, "gimbal_orientation": {"pitch": 0.0, "roll": 0.0, "yaw": 0.0, "yaw_relative": 0.0}, "timestamp": "2023-04-05T14:45:06.843+02:00"}
{"client_id": "abc", "altitude": 221.6, "gps": {"latitude": 49.227290790869674, "longitude": 16.59729006548357}, "aircraft_orientation": {"pitch": 1.5, "roll": -1.3, "yaw": -116.8, "compass": -116.8}, "aircraft_velocity": {"velocity_x": 0.0, "velocity_y": 0.0, "velocity_z": -0.3}, "gimbal_orientation": {"pitch": 0.0, "roll": 0.0, "yaw": 0.0, "yaw_relative": 0.0}, "timestamp": "2023-04-05T14:45:06.843+02:00"}
{"client_id": "abc", "altitude": 221.6, "gps": {"latitude": 49.227290584298295, "longitude": 16.59729006422426}, "aircraft_orientation": {"pitch": 1.7, "roll": -1.4, "yaw": -116.8, "compass": -116.8}, "aircraft_velocity": {"velocity_x": 0.0, "velocity_y": 0.0, "velocity_z": -0.3}, "gimbal_orientation": {"pitch": 0.0, "roll": 0.0, "yaw": 0.0, "yaw_relative": 0.0}, "timestamp": "2023-04-05T14:45:06.843+02:00"}
{"client_id": "abc", "altitude": 221.7, "gps": {"latitude": 49.2272903983821, "longitude": 16.597290085091394}, "aircraft_orientation": {"pitch": 1.8, "roll": -1.2, "yaw": -117.0, "compass": -117.0}, "aircraft_velocity": {"velocity_x": 0.0, "velocity_y": 0.0, "velocity_z": -0.3}, "gimbal_orientation": {"pitch": 0.0, "roll": 0.0, "yaw": 0.0, "yaw_relative": 0.0}, "timestamp": "2023-04-05T14:45:06.843+02:00"}
